"NAME","BFS_NUMMER","KANTONSNUM","canton","abrCanton","pays","adresse","latitude","longitude"
"Aeugst am Albis",1,1,"Zurich","ZH","Switzerland","Aeugst am Albis, ZH, Switzerland",47.26768,8.48547000000002
"Affoltern am Albis",2,1,"Zurich","ZH","Switzerland","Affoltern am Albis, ZH, Switzerland",47.2772200000001,8.45328000000006
"Bonstetten",3,1,"Zurich","ZH","Switzerland","Bonstetten, ZH, Switzerland",47.3151100000001,8.46813000000003
"Hausen am Albis",4,1,"Zurich","ZH","Switzerland","Hausen am Albis, ZH, Switzerland",47.24037,8.53639000000004
"Hedingen",5,1,"Zurich","ZH","Switzerland","Hedingen, ZH, Switzerland",47.2968100000001,8.44858000000005
"Kappel am Albis",6,1,"Zurich","ZH","Switzerland","Kappel am Albis, ZH, Switzerland",47.2279300000001,8.52683000000007
"Knonau",7,1,"Zurich","ZH","Switzerland","Knonau, ZH, Switzerland",47.22427,8.46003000000007
"Maschwanden",8,1,"Zurich","ZH","Switzerland","Maschwanden, ZH, Switzerland",47.23499,8.42580000000004
"Mettmenstetten",9,1,"Zurich","ZH","Switzerland","Mettmenstetten, ZH, Switzerland",47.2436300000001,8.46296000000007
"Obfelden",10,1,"Zurich","ZH","Switzerland","Obfelden, ZH, Switzerland",47.2633000000001,8.42631000000006
"Ottenbach",11,1,"Zurich","ZH","Switzerland","Ottenbach, ZH, Switzerland",47.28209,8.40376000000003
"Rifferswil",12,1,"Zurich","ZH","Switzerland","Rifferswil, ZH, Switzerland",47.24229,8.49593000000004
"Stallikon",13,1,"Zurich","ZH","Switzerland","Stallikon, ZH, Switzerland",47.3257400000001,8.48998000000006
"Wettswil am Albis",14,1,"Zurich","ZH","Switzerland","Wettswil am Albis, ZH, Switzerland",47.3417200000001,8.47056000000003
"Benken (ZH)",22,1,"Zurich","ZH","Switzerland","Benken (ZH), ZH, Switzerland",47.65405,8.65133000000003
"Berg am Irchel",23,1,"Zurich","ZH","Switzerland","Berg am Irchel, ZH, Switzerland",47.5696300000001,8.59702000000004
"Buch am Irchel",24,1,"Zurich","ZH","Switzerland","Buch am Irchel, ZH, Switzerland",47.54801,8.62303000000003
"Dachsen",25,1,"Zurich","ZH","Switzerland","Dachsen, ZH, Switzerland",47.6655500000001,8.61673000000008
"Dorf",26,1,"Zurich","ZH","Switzerland","Dorf, ZH, Switzerland",47.5729000000001,8.64740000000006
"Feuerthalen",27,1,"Zurich","ZH","Switzerland","Feuerthalen, ZH, Switzerland",47.6930400000001,8.64345000000003
"Flaach",28,1,"Zurich","ZH","Switzerland","Flaach, ZH, Switzerland",47.5752900000001,8.60802000000007
"Flurlingen",29,1,"Zurich","ZH","Switzerland","Flurlingen, ZH, Switzerland",47.6841400000001,8.62824000000006
"Henggart",31,1,"Zurich","ZH","Switzerland","Henggart, ZH, Switzerland",47.56402,8.68441000000007
"Kleinandelfingen",33,1,"Zurich","ZH","Switzerland","Kleinandelfingen, ZH, Switzerland",47.5995800000001,8.68312000000003
"Laufen-Uhwiesen",34,1,"Zurich","ZH","Switzerland","Laufen-Uhwiesen, ZH, Switzerland",47.67258,8.62776000000002
"Marthalen",35,1,"Zurich","ZH","Switzerland","Marthalen, ZH, Switzerland",47.62586,8.64946000000003
"Ossingen",37,1,"Zurich","ZH","Switzerland","Ossingen, ZH, Switzerland",47.61195,8.72627000000006
"Rheinau",38,1,"Zurich","ZH","Switzerland","Rheinau, ZH, Switzerland",47.64446,8.60464000000007
"Thalheim an der Thur",39,1,"Zurich","ZH","Switzerland","Thalheim an der Thur, ZH, Switzerland",47.57811,8.75460000000004
"Trüllikon",40,1,"Zurich","ZH","Switzerland","Trüllikon, ZH, Switzerland",47.6379900000001,8.69256000000007
"Truttikon",41,1,"Zurich","ZH","Switzerland","Truttikon, ZH, Switzerland",47.6288900000001,8.72745000000003
"Volken",43,1,"Zurich","ZH","Switzerland","Volken, ZH, Switzerland",47.5741600000001,8.62433000000004
"Bachenbülach",51,1,"Zurich","ZH","Switzerland","Bachenbülach, ZH, Switzerland",47.50273,8.54821000000004
"Bassersdorf",52,1,"Zurich","ZH","Switzerland","Bassersdorf, ZH, Switzerland",47.4431000000001,8.62883000000005
"Bülach",53,1,"Zurich","ZH","Switzerland","Bülach, ZH, Switzerland",47.512622843,8.56483461600004
"Dietlikon",54,1,"Zurich","ZH","Switzerland","Dietlikon, ZH, Switzerland",47.4231600000001,8.61811000000006
"Eglisau",55,1,"Zurich","ZH","Switzerland","Eglisau, ZH, Switzerland",47.5763700000001,8.52138000000002
"Embrach",56,1,"Zurich","ZH","Switzerland","Embrach, ZH, Switzerland",47.5067900000001,8.59359000000006
"Freienstein-Teufen",57,1,"Zurich","ZH","Switzerland","Freienstein-Teufen, ZH, Switzerland",47.5353500000001,8.58135000000004
"Glattfelden",58,1,"Zurich","ZH","Switzerland","Glattfelden, ZH, Switzerland",47.55888,8.50239000000005
"Hochfelden",59,1,"Zurich","ZH","Switzerland","Hochfelden, ZH, Switzerland",47.5234100000001,8.51580000000007
"Höri",60,1,"Zurich","ZH","Switzerland","Höri, ZH, Switzerland",47.50809,8.50995000000006
"Hüntwangen",61,1,"Zurich","ZH","Switzerland","Hüntwangen, ZH, Switzerland",47.5957900000001,8.49102000000005
"Kloten",62,1,"Zurich","ZH","Switzerland","Kloten, ZH, Switzerland",47.4525400000001,8.58055000000007
"Lufingen",63,1,"Zurich","ZH","Switzerland","Lufingen, ZH, Switzerland",47.4892800000001,8.59404000000006
"Nürensdorf",64,1,"Zurich","ZH","Switzerland","Nürensdorf, ZH, Switzerland",47.44708,8.64906000000008
"Oberembrach",65,1,"Zurich","ZH","Switzerland","Oberembrach, ZH, Switzerland",47.4878,8.61817000000002
"Opfikon",66,1,"Zurich","ZH","Switzerland","Opfikon, ZH, Switzerland",47.42954,8.57398000000006
"Rafz",67,1,"Zurich","ZH","Switzerland","Rafz, ZH, Switzerland",47.61089,8.53929000000005
"Rorbas",68,1,"Zurich","ZH","Switzerland","Rorbas, ZH, Switzerland",47.5298300000001,8.57915000000003
"Wallisellen",69,1,"Zurich","ZH","Switzerland","Wallisellen, ZH, Switzerland",47.4130500000001,8.59341000000006
"Wasterkingen",70,1,"Zurich","ZH","Switzerland","Wasterkingen, ZH, Switzerland",47.5879,8.47533000000004
"Wil (ZH)",71,1,"Zurich","ZH","Switzerland","Wil (ZH), ZH, Switzerland",47.60616,8.50147000000004
"Winkel",72,1,"Zurich","ZH","Switzerland","Winkel, ZH, Switzerland",47.4926300000001,8.55237000000005
"Bachs",81,1,"Zurich","ZH","Switzerland","Bachs, ZH, Switzerland",47.5262300000001,8.44171000000006
"Boppelsen",82,1,"Zurich","ZH","Switzerland","Boppelsen, ZH, Switzerland",47.4694400000001,8.40050000000002
"Buchs (ZH)",83,1,"Zurich","ZH","Switzerland","Buchs (ZH), ZH, Switzerland",47.45894,8.43976000000004
"Dällikon",84,1,"Zurich","ZH","Switzerland","Dällikon, ZH, Switzerland",47.43971,8.43998000000005
"Dänikon",85,1,"Zurich","ZH","Switzerland","Dänikon, ZH, Switzerland",47.44577,8.40970000000004
"Dielsdorf",86,1,"Zurich","ZH","Switzerland","Dielsdorf, ZH, Switzerland",47.48259893404115,8.45882818139041
"Hüttikon",87,1,"Zurich","ZH","Switzerland","Hüttikon, ZH, Switzerland",47.44606,8.38714000000004
"Neerach",88,1,"Zurich","ZH","Switzerland","Neerach, ZH, Switzerland",47.51277,8.47240000000005
"Niederglatt",89,1,"Zurich","ZH","Switzerland","Niederglatt, ZH, Switzerland",47.49442,8.50150000000002
"Niederhasli",90,1,"Zurich","ZH","Switzerland","Niederhasli, ZH, Switzerland",47.48123,8.48396000000002
"Niederweningen",91,1,"Zurich","ZH","Switzerland","Niederweningen, ZH, Switzerland",47.5043700000001,8.37668000000002
"Oberglatt",92,1,"Zurich","ZH","Switzerland","Oberglatt, ZH, Switzerland",47.47662,8.51939000000004
"Oberweningen",93,1,"Zurich","ZH","Switzerland","Oberweningen, ZH, Switzerland",47.5008800000001,8.40530000000007
"Otelfingen",94,1,"Zurich","ZH","Switzerland","Otelfingen, ZH, Switzerland",47.4604100000001,8.39008000000007
"Regensberg",95,1,"Zurich","ZH","Switzerland","Regensberg, ZH, Switzerland",47.4822100000001,8.43648000000007
"Regensdorf",96,1,"Zurich","ZH","Switzerland","Regensdorf, ZH, Switzerland",47.4309900000001,8.46605000000005
"Rümlang",97,1,"Zurich","ZH","Switzerland","Rümlang, ZH, Switzerland",47.4530100000001,8.53007000000002
"Schleinikon",98,1,"Zurich","ZH","Switzerland","Schleinikon, ZH, Switzerland",47.4967500000001,8.39732000000004
"Schöfflisdorf",99,1,"Zurich","ZH","Switzerland","Schöfflisdorf, ZH, Switzerland",47.49976,8.41624000000007
"Stadel",100,1,"Zurich","ZH","Switzerland","Stadel, ZH, Switzerland",47.52802,8.46719000000007
"Steinmaur",101,1,"Zurich","ZH","Switzerland","Steinmaur, ZH, Switzerland",47.4947300000001,8.45031000000006
"Weiach",102,1,"Zurich","ZH","Switzerland","Weiach, ZH, Switzerland",47.5583100000001,8.43581000000006
"Bäretswil",111,1,"Zurich","ZH","Switzerland","Bäretswil, ZH, Switzerland",47.33586,8.85666000000003
"Bubikon",112,1,"Zurich","ZH","Switzerland","Bubikon, ZH, Switzerland",47.2684800000001,8.81888000000004
"Dürnten",113,1,"Zurich","ZH","Switzerland","Dürnten, ZH, Switzerland",47.2776500000001,8.84240000000005
"Fischenthal",114,1,"Zurich","ZH","Switzerland","Fischenthal, ZH, Switzerland",47.333,8.92230000000006
"Gossau (ZH)",115,1,"Zurich","ZH","Switzerland","Gossau (ZH), ZH, Switzerland",47.30749,8.76098000000007
"Grüningen",116,1,"Zurich","ZH","Switzerland","Grüningen, ZH, Switzerland",47.2843700000001,8.76362000000006
"Hinwil",117,1,"Zurich","ZH","Switzerland","Hinwil, ZH, Switzerland",47.305731833,8.85828981900005
"Rüti (ZH)",118,1,"Zurich","ZH","Switzerland","Rüti (ZH), ZH, Switzerland",47.25908,8.84993000000003
"Seegräben",119,1,"Zurich","ZH","Switzerland","Seegräben, ZH, Switzerland",47.3434700000001,8.76950000000005
"Wald (ZH)",120,1,"Zurich","ZH","Switzerland","Wald (ZH), ZH, Switzerland",47.27437,8.91349000000002
"Wetzikon (ZH)",121,1,"Zurich","ZH","Switzerland","Wetzikon (ZH), ZH, Switzerland",47.3250600000001,8.79846000000003
"Adliswil",131,1,"Zurich","ZH","Switzerland","Adliswil, ZH, Switzerland",47.3116200000001,8.52554000000003
"Kilchberg (ZH)",135,1,"Zurich","ZH","Switzerland","Kilchberg (ZH), ZH, Switzerland",47.32165,8.54521000000005
"Langnau am Albis",136,1,"Zurich","ZH","Switzerland","Langnau am Albis, ZH, Switzerland",47.2886500000001,8.53961000000004
"Oberrieden",137,1,"Zurich","ZH","Switzerland","Oberrieden, ZH, Switzerland",47.27833,8.57563000000005
"Richterswil",138,1,"Zurich","ZH","Switzerland","Richterswil, ZH, Switzerland",47.2074900000001,8.70512000000002
"Rüschlikon",139,1,"Zurich","ZH","Switzerland","Rüschlikon, ZH, Switzerland",47.3072900000001,8.55534000000006
"Thalwil",141,1,"Zurich","ZH","Switzerland","Thalwil, ZH, Switzerland",47.2947300000001,8.56470000000007
"Erlenbach (ZH)",151,1,"Zurich","ZH","Switzerland","Erlenbach (ZH), ZH, Switzerland",47.3049500000001,8.59136000000007
"Herrliberg",152,1,"Zurich","ZH","Switzerland","Herrliberg, ZH, Switzerland",47.28619,8.61353000000003
"Hombrechtikon",153,1,"Zurich","ZH","Switzerland","Hombrechtikon, ZH, Switzerland",47.25053,8.76694000000003
"Küsnacht (ZH)",154,1,"Zurich","ZH","Switzerland","Küsnacht (ZH), ZH, Switzerland",47.3188900000001,8.58014000000003
"Männedorf",155,1,"Zurich","ZH","Switzerland","Männedorf, ZH, Switzerland",47.2539400000001,8.69051000000007
"Meilen",156,1,"Zurich","ZH","Switzerland","Meilen, ZH, Switzerland",47.2793703630001,8.67343735600002
"Oetwil am See",157,1,"Zurich","ZH","Switzerland","Oetwil am See, ZH, Switzerland",47.2700400000001,8.72146000000004
"Stäfa",158,1,"Zurich","ZH","Switzerland","Stäfa, ZH, Switzerland",47.24147,8.72297000000003
"Uetikon am See",159,1,"Zurich","ZH","Switzerland","Uetikon am See, ZH, Switzerland",47.26635,8.67627000000005
"Zumikon",160,1,"Zurich","ZH","Switzerland","Zumikon, ZH, Switzerland",47.3302400000001,8.62597000000005
"Zollikon",161,1,"Zurich","ZH","Switzerland","Zollikon, ZH, Switzerland",47.34043,8.57386000000002
"Fehraltorf",172,1,"Zurich","ZH","Switzerland","Fehraltorf, ZH, Switzerland",47.3880600000001,8.75191000000007
"Hittnau",173,1,"Zurich","ZH","Switzerland","Hittnau, ZH, Switzerland",47.36938,8.82286000000005
"Lindau",176,1,"Zurich","ZH","Switzerland","Lindau, ZH, Switzerland",47.4414200000001,8.67146000000002
"Pfäffikon",177,1,"Zurich","ZH","Switzerland","Pfäffikon, ZH, Switzerland",47.36733,8.78495
"Russikon",178,1,"Zurich","ZH","Switzerland","Russikon, ZH, Switzerland",47.39387,8.77600000000007
"Weisslingen",180,1,"Zurich","ZH","Switzerland","Weisslingen, ZH, Switzerland",47.43152,8.76371000000006
"Wila",181,1,"Zurich","ZH","Switzerland","Wila, ZH, Switzerland",47.4196000000001,8.84602000000007
"Wildberg",182,1,"Zurich","ZH","Switzerland","Wildberg, ZH, Switzerland",47.4283,8.81712000000005
"Dübendorf",191,1,"Zurich","ZH","Switzerland","Dübendorf, ZH, Switzerland",47.3997800000001,8.62222000000003
"Egg",192,1,"Zurich","ZH","Switzerland","Egg, ZH, Switzerland",47.30089,8.68991000000005
"Fällanden",193,1,"Zurich","ZH","Switzerland","Fällanden, ZH, Switzerland",47.3715800000001,8.63991000000004
"Greifensee",194,1,"Zurich","ZH","Switzerland","Greifensee, ZH, Switzerland",47.3652300000001,8.67752000000007
"Maur",195,1,"Zurich","ZH","Switzerland","Maur, ZH, Switzerland",47.3403200000001,8.66749000000004
"Mönchaltorf",196,1,"Zurich","ZH","Switzerland","Mönchaltorf, ZH, Switzerland",47.3104000000001,8.72122000000007
"Schwerzenbach",197,1,"Zurich","ZH","Switzerland","Schwerzenbach, ZH, Switzerland",47.3825400000001,8.65763000000004
"Uster",198,1,"Zurich","ZH","Switzerland","Uster, ZH, Switzerland",47.3495100000001,8.71519000000006
"Volketswil",199,1,"Zurich","ZH","Switzerland","Volketswil, ZH, Switzerland",47.38964,8.68984000000006
"Wangen-Brüttisellen",200,1,"Zurich","ZH","Switzerland","Wangen-Brüttisellen, ZH, Switzerland",47.42398,8.63098000000002
"Altikon",211,1,"Zurich","ZH","Switzerland","Altikon, ZH, Switzerland",47.5733200000001,8.78115000000003
"Brütten",213,1,"Zurich","ZH","Switzerland","Brütten, ZH, Switzerland",47.4718,8.67396000000002
"Dägerlen",214,1,"Zurich","ZH","Switzerland","Dägerlen, ZH, Switzerland",47.5612300000001,8.72156000000007
"Dättlikon",215,1,"Zurich","ZH","Switzerland","Dättlikon, ZH, Switzerland",47.52509,8.62267000000003
"Dinhard",216,1,"Zurich","ZH","Switzerland","Dinhard, ZH, Switzerland",47.55506,8.77015000000006
"Ellikon an der Thur",218,1,"Zurich","ZH","Switzerland","Ellikon an der Thur, ZH, Switzerland",47.56253,8.82386000000002
"Elsau",219,1,"Zurich","ZH","Switzerland","Elsau, ZH, Switzerland",47.50534,8.80236000000002
"Hagenbuch",220,1,"Zurich","ZH","Switzerland","Hagenbuch, ZH, Switzerland",47.5209300000001,8.88954000000007
"Hettlingen",221,1,"Zurich","ZH","Switzerland","Hettlingen, ZH, Switzerland",47.5473200000001,8.70851000000005
"Neftenbach",223,1,"Zurich","ZH","Switzerland","Neftenbach, ZH, Switzerland",47.5290200000001,8.66767000000004
"Pfungen",224,1,"Zurich","ZH","Switzerland","Pfungen, ZH, Switzerland",47.51638,8.64227000000005
"Rickenbach (ZH)",225,1,"Zurich","ZH","Switzerland","Rickenbach (ZH), ZH, Switzerland",47.5508600000001,8.79380000000003
"Schlatt (ZH)",226,1,"Zurich","ZH","Switzerland","Schlatt (ZH), ZH, Switzerland",47.47004,8.82828000000006
"Seuzach",227,1,"Zurich","ZH","Switzerland","Seuzach, ZH, Switzerland",47.5363300000001,8.73090000000008
"Turbenthal",228,1,"Zurich","ZH","Switzerland","Turbenthal, ZH, Switzerland",47.43584,8.84735000000006
"Winterthur",230,1,"Zurich","ZH","Switzerland","Winterthur, ZH, Switzerland",47.49852,8.73299000000003
"Zell (ZH)",231,1,"Zurich","ZH","Switzerland","Zell (ZH), ZH, Switzerland",47.44741,8.82443000000006
"Aesch (ZH)",241,1,"Zurich","ZH","Switzerland","Aesch (ZH), ZH, Switzerland",47.33784,8.43854000000005
"Birmensdorf (ZH)",242,1,"Zurich","ZH","Switzerland","Birmensdorf (ZH), ZH, Switzerland",47.35333,8.43686000000002
"Dietikon",243,1,"Zurich","ZH","Switzerland","Dietikon, ZH, Switzerland",47.4042700000001,8.40322000000003
"Geroldswil",244,1,"Zurich","ZH","Switzerland","Geroldswil, ZH, Switzerland",47.4219400000001,8.40952000000004
"Oberengstringen",245,1,"Zurich","ZH","Switzerland","Oberengstringen, ZH, Switzerland",47.4086300000001,8.46092000000004
"Oetwil an der Limmat",246,1,"Zurich","ZH","Switzerland","Oetwil an der Limmat, ZH, Switzerland",47.4279700000001,8.39481000000006
"Schlieren",247,1,"Zurich","ZH","Switzerland","Schlieren, ZH, Switzerland",47.3983200000001,8.45196000000004
"Uitikon",248,1,"Zurich","ZH","Switzerland","Uitikon, ZH, Switzerland",47.37062,8.45390000000003
"Unterengstringen",249,1,"Zurich","ZH","Switzerland","Unterengstringen, ZH, Switzerland",47.4141500000001,8.44774000000007
"Urdorf",250,1,"Zurich","ZH","Switzerland","Urdorf, ZH, Switzerland",47.38685,8.42848000000004
"Weiningen (ZH)",251,1,"Zurich","ZH","Switzerland","Weiningen (ZH), ZH, Switzerland",47.4201600000001,8.43482000000006
"Zürich",261,1,"Zurich","ZH","Switzerland","Zürich, ZH, Switzerland",47.3770700000001,8.53956000000005
"Andelfingen",291,1,"Zurich","ZH","Switzerland","Andelfingen, ZH, Switzerland",47.59424,8.67883
"Stammheim",292,1,"Zurich","ZH","Switzerland","Stammheim, ZH, Switzerland",47.6368200000001,8.79023000000007
"Wädenswil",293,1,"Zurich","ZH","Switzerland","Wädenswil, ZH, Switzerland",47.22972,8.67159000000004
"Elgg",294,1,"Zurich","ZH","Switzerland","Elgg, ZH, Switzerland",47.4908,8.86760000000004
"Horgen",295,1,"Zurich","ZH","Switzerland","Horgen, ZH, Switzerland",47.244342585,8.60915551200003
"Illnau-Effretikon",296,1,"Zurich","ZH","Switzerland","Illnau-Effretikon, ZH, Switzerland",47.4291900000001,8.68672000000004
"Bauma",297,1,"Zurich","ZH","Switzerland","Bauma, ZH, Switzerland",47.3678200000001,8.87650000000002
"Wiesendangen",298,1,"Zurich","ZH","Switzerland","Wiesendangen, ZH, Switzerland",47.5209400000001,8.78821000000005
"Aarberg",301,2,"Berne","BE","Switzerland","Aarberg, BE, Switzerland",47.0439500000001,7.27791000000008
"Bargen (BE)",302,2,"Berne","BE","Switzerland","Bargen (BE), BE, Switzerland",47.04018,7.26103
"Grossaffoltern",303,2,"Berne","BE","Switzerland","Grossaffoltern, BE, Switzerland",47.0664100000001,7.36141000000003
"Kallnach",304,2,"Berne","BE","Switzerland","Kallnach, BE, Switzerland",47.0197900000001,7.23534000000006
"Kappelen",305,2,"Berne","BE","Switzerland","Kappelen, BE, Switzerland",47.05616,7.26156000000003
"Lyss",306,2,"Berne","BE","Switzerland","Lyss, BE, Switzerland",47.07199,7.30793000000006
"Meikirch",307,2,"Berne","BE","Switzerland","Meikirch, BE, Switzerland",47.00926,7.36853000000002
"Radelfingen",309,2,"Berne","BE","Switzerland","Radelfingen, BE, Switzerland",47.02191,7.27246000000002
"Rapperswil (BE)",310,2,"Berne","BE","Switzerland","Rapperswil (BE), BE, Switzerland",47.06262,7.41089000000005
"Schüpfen",311,2,"Berne","BE","Switzerland","Schüpfen, BE, Switzerland",47.04292,7.38233000000002
"Seedorf (BE)",312,2,"Berne","BE","Switzerland","Seedorf (BE), BE, Switzerland",47.03056,7.31571000000002
"Aarwangen",321,2,"Berne","BE","Switzerland","Aarwangen, BE, Switzerland",47.2403600000001,7.76847000000004
"Auswil",322,2,"Berne","BE","Switzerland","Auswil, BE, Switzerland",47.13552,7.83444000000003
"Bannwil",323,2,"Berne","BE","Switzerland","Bannwil, BE, Switzerland",47.2368500000001,7.73276000000004
"Bleienbach",324,2,"Berne","BE","Switzerland","Bleienbach, BE, Switzerland",47.1852000000001,7.75629000000004
"Busswil bei Melchnau",325,2,"Berne","BE","Switzerland","Busswil bei Melchnau, BE, Switzerland",47.18591,7.83254000000005
"Gondiswil",326,2,"Berne","BE","Switzerland","Gondiswil, BE, Switzerland",47.1441100000001,7.87277000000006
"Langenthal",329,2,"Berne","BE","Switzerland","Langenthal, BE, Switzerland",47.2120600000001,7.79004000000003
"Lotzwil",331,2,"Berne","BE","Switzerland","Lotzwil, BE, Switzerland",47.1904900000001,7.79039000000006
"Madiswil",332,2,"Berne","BE","Switzerland","Madiswil, BE, Switzerland",47.16551,7.79851000000002
"Melchnau",333,2,"Berne","BE","Switzerland","Melchnau, BE, Switzerland",47.18287,7.85077000000007
"Oeschenbach",335,2,"Berne","BE","Switzerland","Oeschenbach, BE, Switzerland",47.1152900000001,7.75319000000007
"Reisiswil",336,2,"Berne","BE","Switzerland","Reisiswil, BE, Switzerland",47.1648000000001,7.84403000000003
"Roggwil (BE)",337,2,"Berne","BE","Switzerland","Roggwil (BE), BE, Switzerland",47.24111,7.82280000000003
"Rohrbach",338,2,"Berne","BE","Switzerland","Rohrbach, BE, Switzerland",47.1359,7.81237000000004
"Rohrbachgraben",339,2,"Berne","BE","Switzerland","Rohrbachgraben, BE, Switzerland",47.1211300000001,7.80118000000004
"Rütschelen",340,2,"Berne","BE","Switzerland","Rütschelen, BE, Switzerland",47.1744800000001,7.77446000000003
"Schwarzhäusern",341,2,"Berne","BE","Switzerland","Schwarzhäusern, BE, Switzerland",47.25359,7.76645000000002
"Thunstetten",342,2,"Berne","BE","Switzerland","Thunstetten, BE, Switzerland",47.2045600000001,7.75347000000005
"Ursenbach",344,2,"Berne","BE","Switzerland","Ursenbach, BE, Switzerland",47.13683,7.77265000000006
"Wynau",345,2,"Berne","BE","Switzerland","Wynau, BE, Switzerland",47.25539,7.81570000000005
"Bern",351,2,"Berne","BE","Switzerland","Bern, BE, Switzerland",46.94843,7.44046000000003
"Bolligen",352,2,"Berne","BE","Switzerland","Bolligen, BE, Switzerland",46.9747600000001,7.49637000000007
"Bremgarten bei Bern",353,2,"Berne","BE","Switzerland","Bremgarten bei Bern, BE, Switzerland",46.9769400000001,7.44000000000005
"Kirchlindach",354,2,"Berne","BE","Switzerland","Kirchlindach, BE, Switzerland",47.0001300000001,7.41586000000007
"Köniz",355,2,"Berne","BE","Switzerland","Köniz, BE, Switzerland",46.9256635309476,7.4166683309943
"Muri bei Bern",356,2,"Berne","BE","Switzerland","Muri bei Bern, BE, Switzerland",46.93003,7.48769000000004
"Oberbalm",357,2,"Berne","BE","Switzerland","Oberbalm, BE, Switzerland",46.8733700000001,7.40334000000007
"Stettlen",358,2,"Berne","BE","Switzerland","Stettlen, BE, Switzerland",46.9585700000001,7.52420000000006
"Vechigen",359,2,"Berne","BE","Switzerland","Vechigen, BE, Switzerland",46.9467500000001,7.56169000000006
"Wohlen bei Bern",360,2,"Berne","BE","Switzerland","Wohlen bei Bern, BE, Switzerland",46.9711800000001,7.35599000000008
"Zollikofen",361,2,"Berne","BE","Switzerland","Zollikofen, BE, Switzerland",46.9967,7.45891000000006
"Ittigen",362,2,"Berne","BE","Switzerland","Ittigen, BE, Switzerland",46.9774800000001,7.48090000000008
"Ostermundigen",363,2,"Berne","BE","Switzerland","Ostermundigen, BE, Switzerland",46.9574700000001,7.48678000000007
"Biel/Bienne",371,2,"Berne","BE","Switzerland","Biel/Bienne, BE, Switzerland",47.14088,7.24725000000007
"Evilard",372,2,"Berne","BE","Switzerland","Evilard, BE, Switzerland",47.14935,7.23708000000005
"Arch",381,2,"Berne","BE","Switzerland","Arch, BE, Switzerland",47.16738,7.42799000000002
"Büetigen",382,2,"Berne","BE","Switzerland","Büetigen, BE, Switzerland",47.1061500000001,7.34129000000007
"Büren an der Aare",383,2,"Berne","BE","Switzerland","Büren an der Aare, BE, Switzerland",47.13989,7.37186000000003
"Diessbach bei Büren",385,2,"Berne","BE","Switzerland","Diessbach bei Büren, BE, Switzerland",47.10848,7.36341000000004
"Dotzigen",386,2,"Berne","BE","Switzerland","Dotzigen, BE, Switzerland",47.1204000000001,7.34181000000007
"Lengnau (BE)",387,2,"Berne","BE","Switzerland","Lengnau (BE), BE, Switzerland",47.1823800000001,7.36625000000004
"Leuzigen",388,2,"Berne","BE","Switzerland","Leuzigen, BE, Switzerland",47.1750200000001,7.45911000000007
"Meinisberg",390,2,"Berne","BE","Switzerland","Meinisberg, BE, Switzerland",47.1595600000001,7.34782000000007
"Oberwil bei Büren",391,2,"Berne","BE","Switzerland","Oberwil bei Büren, BE, Switzerland",47.1289100000001,7.40470000000005
"Pieterlen",392,2,"Berne","BE","Switzerland","Pieterlen, BE, Switzerland",47.1749,7.33711000000005
"Rüti bei Büren",393,2,"Berne","BE","Switzerland","Rüti bei Büren, BE, Switzerland",47.1528500000001,7.40540000000004
"Wengi",394,2,"Berne","BE","Switzerland","Wengi, BE, Switzerland",47.0827200000001,7.39725000000004
"Aefligen",401,2,"Berne","BE","Switzerland","Aefligen, BE, Switzerland",47.09392,7.55769000000004
"Alchenstorf",402,2,"Berne","BE","Switzerland","Alchenstorf, BE, Switzerland",47.1247900000001,7.64034000000004
"Bäriswil",403,2,"Berne","BE","Switzerland","Bäriswil, BE, Switzerland",47.0192400000001,7.52742000000006
"Burgdorf",404,2,"Berne","BE","Switzerland","Burgdorf, BE, Switzerland",47.0548400000001,7.62451000000004
"Ersigen",405,2,"Berne","BE","Switzerland","Ersigen, BE, Switzerland",47.0940900000001,7.59581000000003
"Hasle bei Burgdorf",406,2,"Berne","BE","Switzerland","Hasle bei Burgdorf, BE, Switzerland",47.01626,7.65591000000006
"Heimiswil",407,2,"Berne","BE","Switzerland","Heimiswil, BE, Switzerland",47.0650600000001,7.65923000000004
"Hindelbank",409,2,"Berne","BE","Switzerland","Hindelbank, BE, Switzerland",47.0433200000001,7.54032000000007
"Höchstetten",410,2,"Berne","BE","Switzerland","Höchstetten, BE, Switzerland",47.1424400000001,7.63283000000007
"Kernenried",411,2,"Berne","BE","Switzerland","Kernenried, BE, Switzerland",47.07354,7.54956000000004
"Kirchberg (BE)",412,2,"Berne","BE","Switzerland","Kirchberg (BE), BE, Switzerland",47.0851900000001,7.58445000000006
"Koppigen",413,2,"Berne","BE","Switzerland","Koppigen, BE, Switzerland",47.1336900000001,7.60232000000002
"Krauchthal",414,2,"Berne","BE","Switzerland","Krauchthal, BE, Switzerland",47.0092900000001,7.56586000000004
"Lyssach",415,2,"Berne","BE","Switzerland","Lyssach, BE, Switzerland",47.0651500000001,7.58023000000003
"Oberburg",418,2,"Berne","BE","Switzerland","Oberburg, BE, Switzerland",47.039,7.62605000000002
"Rüdtligen-Alchenflüh",420,2,"Berne","BE","Switzerland","Rüdtligen-Alchenflüh, BE, Switzerland",47.08766,7.56899000000004
"Rumendingen",421,2,"Berne","BE","Switzerland","Rumendingen, BE, Switzerland",47.10634,7.64365000000004
"Rüti bei Lyssach",422,2,"Berne","BE","Switzerland","Rüti bei Lyssach, BE, Switzerland",47.0538300000001,7.57839000000007
"Willadingen",423,2,"Berne","BE","Switzerland","Willadingen, BE, Switzerland",47.14527,7.61457000000007
"Wynigen",424,2,"Berne","BE","Switzerland","Wynigen, BE, Switzerland",47.10607,7.66782000000006
"Corgémont",431,2,"Berne","BE","Switzerland","Corgémont, BE, Switzerland",47.1942900000001,7.14409000000006
"Cormoret",432,2,"Berne","BE","Switzerland","Cormoret, BE, Switzerland",47.17485,7.05603000000002
"Cortébert",433,2,"Berne","BE","Switzerland","Cortébert, BE, Switzerland",47.1906300000001,7.10675000000003
"Courtelary",434,2,"Berne","BE","Switzerland","Courtelary, BE, Switzerland",47.1786700000001,7.07368000000002
"La Ferrière",435,2,"Berne","BE","Switzerland","La Ferrière, BE, Switzerland",47.1429900000001,6.89290000000005
"Mont-Tramelan",437,2,"Berne","BE","Switzerland","Mont-Tramelan, BE, Switzerland",47.2105300000001,7.05468000000008
"Orvin",438,2,"Berne","BE","Switzerland","Orvin, BE, Switzerland",47.16063,7.21366000000006
"Renan (BE)",441,2,"Berne","BE","Switzerland","Renan (BE), BE, Switzerland",47.12726,6.92995000000008
"Romont (BE)",442,2,"Berne","BE","Switzerland","Romont (BE), BE, Switzerland",47.18915,7.34015000000005
"Saint-Imier",443,2,"Berne","BE","Switzerland","Saint-Imier, BE, Switzerland",47.1521100000001,6.99577000000005
"Sonceboz-Sombeval",444,2,"Berne","BE","Switzerland","Sonceboz-Sombeval, BE, Switzerland",47.19789,7.17228000000006
"Sonvilier",445,2,"Berne","BE","Switzerland","Sonvilier, BE, Switzerland",47.1390500000001,6.96469000000008
"Tramelan",446,2,"Berne","BE","Switzerland","Tramelan, BE, Switzerland",47.2233600000001,7.10133000000008
"Villeret",448,2,"Berne","BE","Switzerland","Villeret, BE, Switzerland",47.15815,7.01874000000004
"Sauge",449,2,"Berne","BE","Switzerland","Sauge, BE, Switzerland",47.1881000000001,7.28644000000003
"Péry-La Heutte",450,2,"Berne","BE","Switzerland","Péry-La Heutte, BE, Switzerland",47.19028,7.22526000000005
"Brüttelen",491,2,"Berne","BE","Switzerland","Brüttelen, BE, Switzerland",47.0193600000001,7.14605000000006
"Erlach",492,2,"Berne","BE","Switzerland","Erlach, BE, Switzerland",47.0446000000001,7.09303000000006
"Finsterhennen",493,2,"Berne","BE","Switzerland","Finsterhennen, BE, Switzerland",47.0276400000001,7.18096000000003
"Gals",494,2,"Berne","BE","Switzerland","Gals, BE, Switzerland",47.0285500000001,7.05100000000004
"Gampelen",495,2,"Berne","BE","Switzerland","Gampelen, BE, Switzerland",47.0147200000001,7.05898000000008
"Ins",496,2,"Berne","BE","Switzerland","Ins, BE, Switzerland",47.0059400000001,7.10582000000005
"Lüscherz",497,2,"Berne","BE","Switzerland","Lüscherz, BE, Switzerland",47.0458400000001,7.15313000000003
"Müntschemier",498,2,"Berne","BE","Switzerland","Müntschemier, BE, Switzerland",46.9960600000001,7.14251000000007
"Siselen",499,2,"Berne","BE","Switzerland","Siselen, BE, Switzerland",47.0295100000001,7.18408000000005
"Treiten",500,2,"Berne","BE","Switzerland","Treiten, BE, Switzerland",47.0107,7.16065000000003
"Tschugg",501,2,"Berne","BE","Switzerland","Tschugg, BE, Switzerland",47.02554,7.07739000000004
"Vinelz",502,2,"Berne","BE","Switzerland","Vinelz, BE, Switzerland",47.03531,7.10984000000008
"Bätterkinden",533,2,"Berne","BE","Switzerland","Bätterkinden, BE, Switzerland",47.13176,7.53889000000004
"Fraubrunnen",538,2,"Berne","BE","Switzerland","Fraubrunnen, BE, Switzerland",47.0846000000001,7.52437000000003
"Jegenstorf",540,2,"Berne","BE","Switzerland","Jegenstorf, BE, Switzerland",47.0487400000001,7.50595000000004
"Iffwil",541,2,"Berne","BE","Switzerland","Iffwil, BE, Switzerland",47.0622500000001,7.48159000000004
"Mattstetten",543,2,"Berne","BE","Switzerland","Mattstetten, BE, Switzerland",47.0300500000001,7.51165000000003
"Moosseedorf",544,2,"Berne","BE","Switzerland","Moosseedorf, BE, Switzerland",47.0162800000001,7.48205000000007
"Münchenbuchsee",546,2,"Berne","BE","Switzerland","Münchenbuchsee, BE, Switzerland",47.02142,7.45053000000007
"Urtenen-Schönbühl",551,2,"Berne","BE","Switzerland","Urtenen-Schönbühl, BE, Switzerland",47.0204200000001,7.49953000000005
"Utzenstorf",552,2,"Berne","BE","Switzerland","Utzenstorf, BE, Switzerland",47.1278,7.55874000000006
"Wiggiswil",553,2,"Berne","BE","Switzerland","Wiggiswil, BE, Switzerland",47.0302837945233,7.46885219511863
"Wiler bei Utzenstorf",554,2,"Berne","BE","Switzerland","Wiler bei Utzenstorf, BE, Switzerland",47.15227,7.55902000000003
"Zielebach",556,2,"Berne","BE","Switzerland","Zielebach, BE, Switzerland",47.1587900000001,7.57594000000006
"Zuzwil (BE)",557,2,"Berne","BE","Switzerland","Zuzwil (BE), BE, Switzerland",47.0513700000001,7.47203000000007
"Adelboden",561,2,"Berne","BE","Switzerland","Adelboden, BE, Switzerland",46.4932200000001,7.56047000000007
"Aeschi bei Spiez",562,2,"Berne","BE","Switzerland","Aeschi bei Spiez, BE, Switzerland",46.65662,7.69559000000004
"Frutigen",563,2,"Berne","BE","Switzerland","Frutigen, BE, Switzerland",46.5867200000001,7.64690000000007
"Kandergrund",564,2,"Berne","BE","Switzerland","Kandergrund, BE, Switzerland",46.54567,7.66176000000007
"Kandersteg",565,2,"Berne","BE","Switzerland","Kandersteg, BE, Switzerland",46.49499,7.67285000000004
"Krattigen",566,2,"Berne","BE","Switzerland","Krattigen, BE, Switzerland",46.6610400000001,7.72790000000003
"Reichenbach im Kandertal",567,2,"Berne","BE","Switzerland","Reichenbach im Kandertal, BE, Switzerland",46.6256000000001,7.69027000000006
"Beatenberg",571,2,"Berne","BE","Switzerland","Beatenberg, BE, Switzerland",46.69931,7.79630000000003
"Bönigen",572,2,"Berne","BE","Switzerland","Bönigen, BE, Switzerland",46.6859600000001,7.89375000000007
"Brienz (BE)",573,2,"Berne","BE","Switzerland","Brienz (BE), BE, Switzerland",46.7545000000001,8.03688000000005
"Brienzwiler",574,2,"Berne","BE","Switzerland","Brienzwiler, BE, Switzerland",46.75233,8.09962000000007
"Därligen",575,2,"Berne","BE","Switzerland","Därligen, BE, Switzerland",46.6625700000001,7.80852000000004
"Grindelwald",576,2,"Berne","BE","Switzerland","Grindelwald, BE, Switzerland",46.62438,8.03455000000002
"Gsteigwiler",577,2,"Berne","BE","Switzerland","Gsteigwiler, BE, Switzerland",46.65455,7.87308000000007
"Gündlischwand",578,2,"Berne","BE","Switzerland","Gündlischwand, BE, Switzerland",46.6322000000001,7.90528000000006
"Habkern",579,2,"Berne","BE","Switzerland","Habkern, BE, Switzerland",46.7259100000001,7.86483000000004
"Hofstetten bei Brienz",580,2,"Berne","BE","Switzerland","Hofstetten bei Brienz, BE, Switzerland",46.75474,8.07643000000007
"Interlaken",581,2,"Berne","BE","Switzerland","Interlaken, BE, Switzerland",46.6845000000001,7.85349000000002
"Iseltwald",582,2,"Berne","BE","Switzerland","Iseltwald, BE, Switzerland",46.70748,7.96093000000008
"Lauterbrunnen",584,2,"Berne","BE","Switzerland","Lauterbrunnen, BE, Switzerland",46.5979300000001,7.90756000000005
"Leissigen",585,2,"Berne","BE","Switzerland","Leissigen, BE, Switzerland",46.65466,7.77429000000006
"Lütschental",586,2,"Berne","BE","Switzerland","Lütschental, BE, Switzerland",46.63716,7.94943
"Matten bei Interlaken",587,2,"Berne","BE","Switzerland","Matten bei Interlaken, BE, Switzerland",46.68024,7.86425000000003
"Niederried bei Interlaken",588,2,"Berne","BE","Switzerland","Niederried bei Interlaken, BE, Switzerland",46.7174600000001,7.92928000000006
"Oberried am Brienzersee",589,2,"Berne","BE","Switzerland","Oberried am Brienzersee, BE, Switzerland",46.73769,7.96233000000007
"Ringgenberg (BE)",590,2,"Berne","BE","Switzerland","Ringgenberg (BE), BE, Switzerland",46.70414,7.9002
"Saxeten",591,2,"Berne","BE","Switzerland","Saxeten, BE, Switzerland",46.63638,7.83131000000003
"Schwanden bei Brienz",592,2,"Berne","BE","Switzerland","Schwanden bei Brienz, BE, Switzerland",46.75924,8.05582000000004
"Unterseen",593,2,"Berne","BE","Switzerland","Unterseen, BE, Switzerland",46.6854000000001,7.84866000000005
"Wilderswil",594,2,"Berne","BE","Switzerland","Wilderswil, BE, Switzerland",46.6651400000001,7.86736000000008
"Arni (BE)",602,2,"Berne","BE","Switzerland","Arni (BE), BE, Switzerland",46.93496,7.66505
"Biglen",603,2,"Berne","BE","Switzerland","Biglen, BE, Switzerland",46.9248600000001,7.62973000000005
"Bowil",605,2,"Berne","BE","Switzerland","Bowil, BE, Switzerland",46.8935500000001,7.69486000000006
"Brenzikofen",606,2,"Berne","BE","Switzerland","Brenzikofen, BE, Switzerland",46.8175800000001,7.61722000000003
"Freimettigen",607,2,"Berne","BE","Switzerland","Freimettigen, BE, Switzerland",46.8675700000001,7.62752000000006
"Grosshöchstetten",608,2,"Berne","BE","Switzerland","Grosshöchstetten, BE, Switzerland",46.9071200000001,7.63767000000007
"Häutligen",609,2,"Berne","BE","Switzerland","Häutligen, BE, Switzerland",46.8570100000001,7.60520000000002
"Herbligen",610,2,"Berne","BE","Switzerland","Herbligen, BE, Switzerland",46.82766,7.60919000000007
"Kiesen",611,2,"Berne","BE","Switzerland","Kiesen, BE, Switzerland",46.8194100000001,7.58267000000006
"Konolfingen",612,2,"Berne","BE","Switzerland","Konolfingen, BE, Switzerland",46.881,7.62113000000005
"Landiswil",613,2,"Berne","BE","Switzerland","Landiswil, BE, Switzerland",46.95786,7.67998000000006
"Linden",614,2,"Berne","BE","Switzerland","Linden, BE, Switzerland",46.8479800000001,7.67832000000004
"Mirchel",615,2,"Berne","BE","Switzerland","Mirchel, BE, Switzerland",46.8943100000001,7.64688000000007
"Münsingen",616,2,"Berne","BE","Switzerland","Münsingen, BE, Switzerland",46.8749500000001,7.56290000000007
"Niederhünigen",617,2,"Berne","BE","Switzerland","Niederhünigen, BE, Switzerland",46.8772500000001,7.63560000000007
"Oberdiessbach",619,2,"Berne","BE","Switzerland","Oberdiessbach, BE, Switzerland",46.8401500000001,7.61894000000007
"Oberthal",620,2,"Berne","BE","Switzerland","Oberthal, BE, Switzerland",46.91641,7.67382000000003
"Oppligen",622,2,"Berne","BE","Switzerland","Oppligen, BE, Switzerland",46.8208100000001,7.59722000000005
"Rubigen",623,2,"Berne","BE","Switzerland","Rubigen, BE, Switzerland",46.89838,7.54412000000002
"Walkringen",626,2,"Berne","BE","Switzerland","Walkringen, BE, Switzerland",46.9431500000001,7.61779000000007
"Worb",627,2,"Berne","BE","Switzerland","Worb, BE, Switzerland",46.9298000000001,7.56339000000003
"Zäziwil",628,2,"Berne","BE","Switzerland","Zäziwil, BE, Switzerland",46.90187,7.66186000000005
"Allmendingen",630,2,"Berne","BE","Switzerland","Allmendingen, BE, Switzerland",46.91461,7.52446000000003
"Wichtrach",632,2,"Berne","BE","Switzerland","Wichtrach, BE, Switzerland",46.8434700000001,7.57647000000003
"Ferenbalm",662,2,"Berne","BE","Switzerland","Ferenbalm, BE, Switzerland",46.9492700000001,7.21019000000007
"Frauenkappelen",663,2,"Berne","BE","Switzerland","Frauenkappelen, BE, Switzerland",46.9553000000001,7.33687000000003
"Gurbrü",665,2,"Berne","BE","Switzerland","Gurbrü, BE, Switzerland",46.9641300000001,7.21456000000006
"Kriechenwil",666,2,"Berne","BE","Switzerland","Kriechenwil, BE, Switzerland",46.91207,7.22824000000003
"Laupen",667,2,"Berne","BE","Switzerland","Laupen, BE, Switzerland",46.90223,7.23966000000007
"Mühleberg",668,2,"Berne","BE","Switzerland","Mühleberg, BE, Switzerland",46.9527800000001,7.25931000000003
"Münchenwiler",669,2,"Berne","BE","Switzerland","Münchenwiler, BE, Switzerland",46.9113893803298,7.12681718240578
"Neuenegg",670,2,"Berne","BE","Switzerland","Neuenegg, BE, Switzerland",46.89387,7.30221000000006
"Wileroltigen",671,2,"Berne","BE","Switzerland","Wileroltigen, BE, Switzerland",46.97092,7.23847000000006
"Belprahon",681,2,"Berne","BE","Switzerland","Belprahon, BE, Switzerland",47.2797,7.40354000000002
"Champoz",683,2,"Berne","BE","Switzerland","Champoz, BE, Switzerland",47.25525,7.29821000000004
"Corcelles (BE)",687,2,"Berne","BE","Switzerland","Corcelles (BE), BE, Switzerland",47.2854100000001,7.45506000000006
"Court",690,2,"Berne","BE","Switzerland","Court, BE, Switzerland",47.2410400000001,7.34145000000007
"Crémines",691,2,"Berne","BE","Switzerland","Crémines, BE, Switzerland",47.28252,7.44172000000003
"Eschert",692,2,"Berne","BE","Switzerland","Eschert, BE, Switzerland",47.2787900000001,7.39668000000006
"Grandval",694,2,"Berne","BE","Switzerland","Grandval, BE, Switzerland",47.2834,7.42455000000007
"Loveresse",696,2,"Berne","BE","Switzerland","Loveresse, BE, Switzerland",47.2421000000001,7.23777000000007
"Moutier",700,2,"Berne","BE","Switzerland","Moutier, BE, Switzerland",47.27903,7.37303000000003
"Perrefitte",701,2,"Berne","BE","Switzerland","Perrefitte, BE, Switzerland",47.2746700000001,7.34207000000004
"Reconvilier",703,2,"Berne","BE","Switzerland","Reconvilier, BE, Switzerland",47.2347100000001,7.22563000000002
"Roches (BE)",704,2,"Berne","BE","Switzerland","Roches (BE), BE, Switzerland",47.30233,7.37740000000002
"Saicourt",706,2,"Berne","BE","Switzerland","Saicourt, BE, Switzerland",47.2430600000001,7.20824000000005
"Saules (BE)",707,2,"Berne","BE","Switzerland","Saules (BE), BE, Switzerland",47.2445500000001,7.21768000000003
"Schelten",708,2,"Berne","BE","Switzerland","Schelten, BE, Switzerland",47.3362700000001,7.55312000000004
"Seehof",709,2,"Berne","BE","Switzerland","Seehof, BE, Switzerland",47.3047100000001,7.52124000000003
"Sorvilier",711,2,"Berne","BE","Switzerland","Sorvilier, BE, Switzerland",47.23952,7.30586000000005
"Tavannes",713,2,"Berne","BE","Switzerland","Tavannes, BE, Switzerland",47.22004,7.19965000000008
"Rebévelier",715,2,"Berne","BE","Switzerland","Rebévelier, BE, Switzerland",47.2911100000001,7.19228000000004
"Petit-Val",716,2,"Berne","BE","Switzerland","Petit-Val, BE, Switzerland",47.2719300000001,7.19422000000003
"Valbirse",717,2,"Berne","BE","Switzerland","Valbirse, BE, Switzerland",47.2368000000001,7.28183000000007
"La Neuveville",723,2,"Berne","BE","Switzerland","La Neuveville, BE, Switzerland",47.0635500000001,7.09274000000005
"Nods",724,2,"Berne","BE","Switzerland","Nods, BE, Switzerland",47.1129800000001,7.08139000000006
"Plateau de Diesse",726,2,"Berne","BE","Switzerland","Plateau de Diesse, BE, Switzerland",47.1132700000001,7.11633000000006
"Aegerten",731,2,"Berne","BE","Switzerland","Aegerten, BE, Switzerland",47.12129,7.28887000000003
"Bellmund",732,2,"Berne","BE","Switzerland","Bellmund, BE, Switzerland",47.10506,7.24600000000004
"Brügg",733,2,"Berne","BE","Switzerland","Brügg, BE, Switzerland",47.12462,7.27837000000005
"Bühl",734,2,"Berne","BE","Switzerland","Bühl, BE, Switzerland",47.0698100000001,7.24453000000005
"Epsach",735,2,"Berne","BE","Switzerland","Epsach, BE, Switzerland",47.0686200000001,7.21978000000007
"Hagneck",736,2,"Berne","BE","Switzerland","Hagneck, BE, Switzerland",47.05654,7.18546000000003
"Hermrigen",737,2,"Berne","BE","Switzerland","Hermrigen, BE, Switzerland",47.08131,7.24389000000002
"Jens",738,2,"Berne","BE","Switzerland","Jens, BE, Switzerland",47.0991700000001,7.26300000000003
"Ipsach",739,2,"Berne","BE","Switzerland","Ipsach, BE, Switzerland",47.1128200000001,7.23026000000004
"Ligerz",740,2,"Berne","BE","Switzerland","Ligerz, BE, Switzerland",47.08412,7.13557000000003
"Merzligen",741,2,"Berne","BE","Switzerland","Merzligen, BE, Switzerland",47.0869200000001,7.24956000000003
"Mörigen",742,2,"Berne","BE","Switzerland","Mörigen, BE, Switzerland",47.0818800000001,7.20871000000005
"Nidau",743,2,"Berne","BE","Switzerland","Nidau, BE, Switzerland",47.12586,7.24038000000007
"Orpund",744,2,"Berne","BE","Switzerland","Orpund, BE, Switzerland",47.1387800000001,7.30824000000007
"Port",745,2,"Berne","BE","Switzerland","Port, BE, Switzerland",47.1164200000001,7.25504000000006
"Safnern",746,2,"Berne","BE","Switzerland","Safnern, BE, Switzerland",47.1507100000001,7.32444000000004
"Scheuren",747,2,"Berne","BE","Switzerland","Scheuren, BE, Switzerland",47.13244,7.31777000000005
"Schwadernau",748,2,"Berne","BE","Switzerland","Schwadernau, BE, Switzerland",47.1264800000001,7.30034000000006
"Studen (BE)",749,2,"Berne","BE","Switzerland","Studen (BE), BE, Switzerland",47.11548,7.29986000000002
"Sutz-Lattrigen",750,2,"Berne","BE","Switzerland","Sutz-Lattrigen, BE, Switzerland",47.09713,7.21475000000004
"Täuffelen",751,2,"Berne","BE","Switzerland","Täuffelen, BE, Switzerland",47.0700600000001,7.20054000000005
"Walperswil",754,2,"Berne","BE","Switzerland","Walperswil, BE, Switzerland",47.0603600000001,7.22837000000004
"Worben",755,2,"Berne","BE","Switzerland","Worben, BE, Switzerland",47.0987900000001,7.29087000000004
"Twann-Tüscherz",756,2,"Berne","BE","Switzerland","Twann-Tüscherz, BE, Switzerland",47.0945400000001,7.15630000000004
"Därstetten",761,2,"Berne","BE","Switzerland","Därstetten, BE, Switzerland",46.6585000000001,7.49564000000004
"Diemtigen",762,2,"Berne","BE","Switzerland","Diemtigen, BE, Switzerland",46.6481900000001,7.56459000000007
"Erlenbach im Simmental",763,2,"Berne","BE","Switzerland","Erlenbach im Simmental, BE, Switzerland",46.6605000000001,7.55259000000007
"Oberwil im Simmental",766,2,"Berne","BE","Switzerland","Oberwil im Simmental, BE, Switzerland",46.6567000000001,7.43585000000007
"Reutigen",767,2,"Berne","BE","Switzerland","Reutigen, BE, Switzerland",46.69275,7.62307000000004
"Spiez",768,2,"Berne","BE","Switzerland","Spiez, BE, Switzerland",46.6898800000001,7.67485000000005
"Wimmis",769,2,"Berne","BE","Switzerland","Wimmis, BE, Switzerland",46.6744800000001,7.63510000000002
"Stocken-Höfen",770,2,"Berne","BE","Switzerland","Stocken-Höfen, BE, Switzerland",46.7210600000001,7.56308000000007
"Guttannen",782,2,"Berne","BE","Switzerland","Guttannen, BE, Switzerland",46.6546500000001,8.28993000000003
"Hasliberg",783,2,"Berne","BE","Switzerland","Hasliberg, BE, Switzerland",46.73965,8.19862000000006
"Innertkirchen",784,2,"Berne","BE","Switzerland","Innertkirchen, BE, Switzerland",46.7056200000001,8.22858000000002
"Meiringen",785,2,"Berne","BE","Switzerland","Meiringen, BE, Switzerland",46.7280000000001,8.18535000000003
"Schattenhalb",786,2,"Berne","BE","Switzerland","Schattenhalb, BE, Switzerland",46.7194700000001,8.19040000000007
"Boltigen",791,2,"Berne","BE","Switzerland","Boltigen, BE, Switzerland",46.62897,7.39051000000006
"Lenk",792,2,"Berne","BE","Switzerland","Lenk, BE, Switzerland",46.4569700000001,7.44137000000006
"St. Stephan",793,2,"Berne","BE","Switzerland","St. Stephan, BE, Switzerland",46.5081300000001,7.39625000000007
"Zweisimmen",794,2,"Berne","BE","Switzerland","Zweisimmen, BE, Switzerland",46.5530200000001,7.37240000000003
"Gsteig",841,2,"Berne","BE","Switzerland","Gsteig, BE, Switzerland",46.3870900000001,7.26743000000005
"Lauenen",842,2,"Berne","BE","Switzerland","Lauenen, BE, Switzerland",46.42483,7.32207000000005
"Saanen",843,2,"Berne","BE","Switzerland","Saanen, BE, Switzerland",46.4897800000001,7.25992000000002
"Guggisberg",852,2,"Berne","BE","Switzerland","Guggisberg, BE, Switzerland",46.7673500000001,7.32861000000003
"Rüschegg",853,2,"Berne","BE","Switzerland","Rüschegg, BE, Switzerland",46.7798000000001,7.39271000000002
"Schwarzenburg",855,2,"Berne","BE","Switzerland","Schwarzenburg, BE, Switzerland",46.81877,7.34217000000007
"Belp",861,2,"Berne","BE","Switzerland","Belp, BE, Switzerland",46.8913900000001,7.49916000000007
"Burgistein",863,2,"Berne","BE","Switzerland","Burgistein, BE, Switzerland",46.78556,7.49985000000004
"Gerzensee",866,2,"Berne","BE","Switzerland","Gerzensee, BE, Switzerland",46.8397800000001,7.54675000000003
"Gurzelen",867,2,"Berne","BE","Switzerland","Gurzelen, BE, Switzerland",46.77957,7.53348000000005
"Jaberg",868,2,"Berne","BE","Switzerland","Jaberg, BE, Switzerland",46.8172900000001,7.57030000000003
"Kaufdorf",869,2,"Berne","BE","Switzerland","Kaufdorf, BE, Switzerland",46.8382,7.49862000000007
"Kehrsatz",870,2,"Berne","BE","Switzerland","Kehrsatz, BE, Switzerland",46.9110000000001,7.47073000000006
"Kirchdorf (BE)",872,2,"Berne","BE","Switzerland","Kirchdorf (BE), BE, Switzerland",46.8207100000001,7.54786000000007
"Riggisberg",879,2,"Berne","BE","Switzerland","Riggisberg, BE, Switzerland",46.80931,7.47643000000005
"Rüeggisberg",880,2,"Berne","BE","Switzerland","Rüeggisberg, BE, Switzerland",46.8215000000001,7.43894000000006
"Seftigen",883,2,"Berne","BE","Switzerland","Seftigen, BE, Switzerland",46.7871000000001,7.54086000000007
"Toffen",884,2,"Berne","BE","Switzerland","Toffen, BE, Switzerland",46.8589200000001,7.49092000000007
"Uttigen",885,2,"Berne","BE","Switzerland","Uttigen, BE, Switzerland",46.79501,7.57337000000007
"Wattenwil",886,2,"Berne","BE","Switzerland","Wattenwil, BE, Switzerland",46.7698300000001,7.50975000000005
"Wald (BE)",888,2,"Berne","BE","Switzerland","Wald (BE), BE, Switzerland",46.8815900000001,7.47160000000002
"Thurnen",889,2,"Berne","BE","Switzerland","Thurnen, BE, Switzerland",46.8153100000001,7.50723000000005
"Eggiwil",901,2,"Berne","BE","Switzerland","Eggiwil, BE, Switzerland",46.8750600000001,7.79583000000002
"Langnau im Emmental",902,2,"Berne","BE","Switzerland","Langnau im Emmental, BE, Switzerland",46.9380400000001,7.79117000000002
"Lauperswil",903,2,"Berne","BE","Switzerland","Lauperswil, BE, Switzerland",46.9662300000001,7.74112000000002
"Röthenbach im Emmental",904,2,"Berne","BE","Switzerland","Röthenbach im Emmental, BE, Switzerland",46.85556,7.74307000000005
"Rüderswil",905,2,"Berne","BE","Switzerland","Rüderswil, BE, Switzerland",46.9841300000001,7.71853000000004
"Schangnau",906,2,"Berne","BE","Switzerland","Schangnau, BE, Switzerland",46.82755,7.86061000000007
"Signau",907,2,"Berne","BE","Switzerland","Signau, BE, Switzerland",46.91729,7.72117000000003
"Trub",908,2,"Berne","BE","Switzerland","Trub, BE, Switzerland",46.9407600000001,7.87679000000003
"Trubschachen",909,2,"Berne","BE","Switzerland","Trubschachen, BE, Switzerland",46.9231300000001,7.84430000000003
"Amsoldingen",921,2,"Berne","BE","Switzerland","Amsoldingen, BE, Switzerland",46.7274600000001,7.58055000000007
"Blumenstein",922,2,"Berne","BE","Switzerland","Blumenstein, BE, Switzerland",46.74096,7.52061000000003
"Buchholterberg",923,2,"Berne","BE","Switzerland","Buchholterberg, BE, Switzerland",46.82865,7.69825000000003
"Eriz",924,2,"Berne","BE","Switzerland","Eriz, BE, Switzerland",46.78821,7.77750000000003
"Fahrni",925,2,"Berne","BE","Switzerland","Fahrni, BE, Switzerland",46.7969000000001,7.66876000000002
"Heiligenschwendi",927,2,"Berne","BE","Switzerland","Heiligenschwendi, BE, Switzerland",46.75001,7.68682000000007
"Heimberg",928,2,"Berne","BE","Switzerland","Heimberg, BE, Switzerland",46.79213,7.60607000000005
"Hilterfingen",929,2,"Berne","BE","Switzerland","Hilterfingen, BE, Switzerland",46.73519,7.65850000000006
"Homberg",931,2,"Berne","BE","Switzerland","Homberg, BE, Switzerland",46.77313,7.67901000000006
"Horrenbach-Buchen",932,2,"Berne","BE","Switzerland","Horrenbach-Buchen, BE, Switzerland",46.7792600000001,7.75152000000003
"Oberhofen am Thunersee",934,2,"Berne","BE","Switzerland","Oberhofen am Thunersee, BE, Switzerland",46.7308200000001,7.66909000000004
"Oberlangenegg",935,2,"Berne","BE","Switzerland","Oberlangenegg, BE, Switzerland",46.7934500000001,7.72441000000003
"Pohlern",936,2,"Berne","BE","Switzerland","Pohlern, BE, Switzerland",46.7256800000001,7.53670000000005
"Sigriswil",938,2,"Berne","BE","Switzerland","Sigriswil, BE, Switzerland",46.71716,7.71363000000002
"Steffisburg",939,2,"Berne","BE","Switzerland","Steffisburg, BE, Switzerland",46.77878,7.63475000000005
"Teuffenthal (BE)",940,2,"Berne","BE","Switzerland","Teuffenthal (BE), BE, Switzerland",46.76829,7.71217000000007
"Thierachern",941,2,"Berne","BE","Switzerland","Thierachern, BE, Switzerland",46.75203,7.57245000000006
"Thun",942,2,"Berne","BE","Switzerland","Thun, BE, Switzerland",46.75694,7.63026000000002
"Uebeschi",943,2,"Berne","BE","Switzerland","Uebeschi, BE, Switzerland",46.73837,7.55367000000007
"Uetendorf",944,2,"Berne","BE","Switzerland","Uetendorf, BE, Switzerland",46.7743,7.57166000000007
"Unterlangenegg",945,2,"Berne","BE","Switzerland","Unterlangenegg, BE, Switzerland",46.7959500000001,7.70845000000003
"Wachseldorn",946,2,"Berne","BE","Switzerland","Wachseldorn, BE, Switzerland",46.81775,7.72457000000003
"Forst-Längenbühl",948,2,"Berne","BE","Switzerland","Forst-Längenbühl, BE, Switzerland",46.7556000000001,7.52942000000007
"Affoltern im Emmental",951,2,"Berne","BE","Switzerland","Affoltern im Emmental, BE, Switzerland",47.0649000000001,7.73224000000005
"Dürrenroth",952,2,"Berne","BE","Switzerland","Dürrenroth, BE, Switzerland",47.08998,7.79160000000007
"Eriswil",953,2,"Berne","BE","Switzerland","Eriswil, BE, Switzerland",47.07908,7.85065000000003
"Huttwil",954,2,"Berne","BE","Switzerland","Huttwil, BE, Switzerland",47.1139400000001,7.84592000000004
"Lützelflüh",955,2,"Berne","BE","Switzerland","Lützelflüh, BE, Switzerland",47.00645,7.68498000000005
"Rüegsau",956,2,"Berne","BE","Switzerland","Rüegsau, BE, Switzerland",47.0249000000001,7.67234000000008
"Sumiswald",957,2,"Berne","BE","Switzerland","Sumiswald, BE, Switzerland",47.0250500000001,7.73687000000007
"Trachselwald",958,2,"Berne","BE","Switzerland","Trachselwald, BE, Switzerland",47.0169900000001,7.73677000000004
"Walterswil (BE)",959,2,"Berne","BE","Switzerland","Walterswil (BE), BE, Switzerland",47.1132200000001,7.77869000000004
"Wyssachen",960,2,"Berne","BE","Switzerland","Wyssachen, BE, Switzerland",47.07581,7.83004000000005
"Attiswil",971,2,"Berne","BE","Switzerland","Attiswil, BE, Switzerland",47.24688,7.61267000000004
"Berken",972,2,"Berne","BE","Switzerland","Berken, BE, Switzerland",47.2237200000001,7.70701000000003
"Bettenhausen",973,2,"Berne","BE","Switzerland","Bettenhausen, BE, Switzerland",47.17348,7.71206000000006
"Farnern",975,2,"Berne","BE","Switzerland","Farnern, BE, Switzerland",47.2667000000001,7.62386000000004
"Graben",976,2,"Berne","BE","Switzerland","Graben, BE, Switzerland",47.2195300000001,7.72100000000006
"Heimenhausen",977,2,"Berne","BE","Switzerland","Heimenhausen, BE, Switzerland",47.20867,7.69910000000004
"Herzogenbuchsee",979,2,"Berne","BE","Switzerland","Herzogenbuchsee, BE, Switzerland",47.19154,7.70378000000005
"Inkwil",980,2,"Berne","BE","Switzerland","Inkwil, BE, Switzerland",47.20214,7.66775000000007
"Niederbipp",981,2,"Berne","BE","Switzerland","Niederbipp, BE, Switzerland",47.2712700000001,7.69127000000003
"Niederönz",982,2,"Berne","BE","Switzerland","Niederönz, BE, Switzerland",47.1850200000001,7.69297000000006
"Oberbipp",983,2,"Berne","BE","Switzerland","Oberbipp, BE, Switzerland",47.2621,7.66019000000006
"Ochlenberg",985,2,"Berne","BE","Switzerland","Ochlenberg, BE, Switzerland",47.15034,7.73659000000004
"Rumisberg",987,2,"Berne","BE","Switzerland","Rumisberg, BE, Switzerland",47.2641300000001,7.64209000000005
"Seeberg",988,2,"Berne","BE","Switzerland","Seeberg, BE, Switzerland",47.1548900000001,7.66548000000006
"Thörigen",989,2,"Berne","BE","Switzerland","Thörigen, BE, Switzerland",47.1732900000001,7.72799000000003
"Walliswil bei Niederbipp",990,2,"Berne","BE","Switzerland","Walliswil bei Niederbipp, BE, Switzerland",47.23598,7.69164000000006
"Walliswil bei Wangen",991,2,"Berne","BE","Switzerland","Walliswil bei Wangen, BE, Switzerland",47.2308200000001,7.68264000000005
"Wangen an der Aare",992,2,"Berne","BE","Switzerland","Wangen an der Aare, BE, Switzerland",47.23569,7.65480000000002
"Wiedlisbach",995,2,"Berne","BE","Switzerland","Wiedlisbach, BE, Switzerland",47.2515700000001,7.64617000000004
"Doppleschwand",1001,3,"Lucerne","LU","Switzerland","Doppleschwand, LU, Switzerland",47.02016,8.05576000000002
"Entlebuch",1002,3,"Lucerne","LU","Switzerland","Entlebuch, LU, Switzerland",46.99366,8.0626
"Flühli",1004,3,"Lucerne","LU","Switzerland","Flühli, LU, Switzerland",46.88388,8.01586000000003
"Hasle (LU)",1005,3,"Lucerne","LU","Switzerland","Hasle (LU), LU, Switzerland",46.97925,8.04997000000003
"Romoos",1007,3,"Lucerne","LU","Switzerland","Romoos, LU, Switzerland",47.0113600000001,8.02895000000007
"Schüpfheim",1008,3,"Lucerne","LU","Switzerland","Schüpfheim, LU, Switzerland",46.9537700000001,8.01980000000003
"Werthenstein",1009,3,"Lucerne","LU","Switzerland","Werthenstein, LU, Switzerland",47.0553600000001,8.10300000000007
"Escholzmatt-Marbach",1010,3,"Lucerne","LU","Switzerland","Escholzmatt-Marbach, LU, Switzerland",46.9170100000001,7.93613000000005
"Aesch (LU)",1021,3,"Lucerne","LU","Switzerland","Aesch (LU), LU, Switzerland",47.25674,8.24110000000007
"Ballwil",1023,3,"Lucerne","LU","Switzerland","Ballwil, LU, Switzerland",47.1527300000001,8.32071000000008
"Emmen",1024,3,"Lucerne","LU","Switzerland","Emmen, LU, Switzerland",47.07881,8.30352000000005
"Ermensee",1025,3,"Lucerne","LU","Switzerland","Ermensee, LU, Switzerland",47.22788,8.24087000000003
"Eschenbach (LU)",1026,3,"Lucerne","LU","Switzerland","Eschenbach (LU), LU, Switzerland",47.13257,8.32005000000004
"Hitzkirch",1030,3,"Lucerne","LU","Switzerland","Hitzkirch, LU, Switzerland",47.2249600000001,8.26328000000007
"Hochdorf",1031,3,"Lucerne","LU","Switzerland","Hochdorf, LU, Switzerland",47.1692586710001,8.28596358600004
"Hohenrain",1032,3,"Lucerne","LU","Switzerland","Hohenrain, LU, Switzerland",47.1791900000001,8.31566000000004
"Inwil",1033,3,"Lucerne","LU","Switzerland","Inwil, LU, Switzerland",47.12204,8.34991000000002
"Rain",1037,3,"Lucerne","LU","Switzerland","Rain, LU, Switzerland",47.12956,8.25684000000007
"Römerswil",1039,3,"Lucerne","LU","Switzerland","Römerswil, LU, Switzerland",47.1694900000001,8.24494000000004
"Rothenburg",1040,3,"Lucerne","LU","Switzerland","Rothenburg, LU, Switzerland",47.09374,8.27169000000004
"Schongau",1041,3,"Lucerne","LU","Switzerland","Schongau, LU, Switzerland",47.26773,8.26360000000005
"Adligenswil",1051,3,"Lucerne","LU","Switzerland","Adligenswil, LU, Switzerland",47.07167,8.36202000000003
"Buchrain",1052,3,"Lucerne","LU","Switzerland","Buchrain, LU, Switzerland",47.09471,8.34623
"Dierikon",1053,3,"Lucerne","LU","Switzerland","Dierikon, LU, Switzerland",47.09668,8.37091000000004
"Ebikon",1054,3,"Lucerne","LU","Switzerland","Ebikon, LU, Switzerland",47.08167,8.34104000000002
"Gisikon",1055,3,"Lucerne","LU","Switzerland","Gisikon, LU, Switzerland",47.1276500000001,8.40062000000006
"Greppen",1056,3,"Lucerne","LU","Switzerland","Greppen, LU, Switzerland",47.0558300000001,8.43009000000006
"Honau",1057,3,"Lucerne","LU","Switzerland","Honau, LU, Switzerland",47.13316,8.40664000000004
"Horw",1058,3,"Lucerne","LU","Switzerland","Horw, LU, Switzerland",47.0191500000001,8.31152000000003
"Kriens",1059,3,"Lucerne","LU","Switzerland","Kriens, LU, Switzerland",47.03382,8.27941000000004
"Luzern",1061,3,"Lucerne","LU","Switzerland","Luzern, LU, Switzerland",47.04954,8.30437000000006
"Malters",1062,3,"Lucerne","LU","Switzerland","Malters, LU, Switzerland",47.0368100000001,8.18272000000007
"Meggen",1063,3,"Lucerne","LU","Switzerland","Meggen, LU, Switzerland",47.04603,8.37297000000007
"Meierskappel",1064,3,"Lucerne","LU","Switzerland","Meierskappel, LU, Switzerland",47.1246800000001,8.44328000000007
"Root",1065,3,"Lucerne","LU","Switzerland","Root, LU, Switzerland",47.1152300000001,8.39018000000004
"Schwarzenberg",1066,3,"Lucerne","LU","Switzerland","Schwarzenberg, LU, Switzerland",47.0164,8.17323000000005
"Udligenswil",1067,3,"Lucerne","LU","Switzerland","Udligenswil, LU, Switzerland",47.0911600000001,8.40122000000002
"Vitznau",1068,3,"Lucerne","LU","Switzerland","Vitznau, LU, Switzerland",47.01034,8.48331000000007
"Weggis",1069,3,"Lucerne","LU","Switzerland","Weggis, LU, Switzerland",47.0323000000001,8.43473000000006
"Beromünster",1081,3,"Lucerne","LU","Switzerland","Beromünster, LU, Switzerland",47.20646,8.19195000000008
"Büron",1082,3,"Lucerne","LU","Switzerland","Büron, LU, Switzerland",47.21574,8.09229000000005
"Buttisholz",1083,3,"Lucerne","LU","Switzerland","Buttisholz, LU, Switzerland",47.11443,8.09387000000004
"Eich",1084,3,"Lucerne","LU","Switzerland","Eich, LU, Switzerland",47.1504800000001,8.16841000000005
"Geuensee",1085,3,"Lucerne","LU","Switzerland","Geuensee, LU, Switzerland",47.1957100000001,8.10378000000003
"Grosswangen",1086,3,"Lucerne","LU","Switzerland","Grosswangen, LU, Switzerland",47.13377,8.04819000000003
"Hildisrieden",1088,3,"Lucerne","LU","Switzerland","Hildisrieden, LU, Switzerland",47.15076,8.22907000000004
"Knutwil",1089,3,"Lucerne","LU","Switzerland","Knutwil, LU, Switzerland",47.1994,8.07208000000003
"Mauensee",1091,3,"Lucerne","LU","Switzerland","Mauensee, LU, Switzerland",47.16779,8.06643000000003
"Neuenkirch",1093,3,"Lucerne","LU","Switzerland","Neuenkirch, LU, Switzerland",47.0990100000001,8.20427000000007
"Nottwil",1094,3,"Lucerne","LU","Switzerland","Nottwil, LU, Switzerland",47.13577,8.13596000000007
"Oberkirch",1095,3,"Lucerne","LU","Switzerland","Oberkirch, LU, Switzerland",47.15781,8.11549000000002
"Rickenbach (LU)",1097,3,"Lucerne","LU","Switzerland","Rickenbach (LU), LU, Switzerland",47.2197100000001,8.15412000000003
"Ruswil",1098,3,"Lucerne","LU","Switzerland","Ruswil, LU, Switzerland",47.08356,8.12673000000007
"Schenkon",1099,3,"Lucerne","LU","Switzerland","Schenkon, LU, Switzerland",47.1725700000001,8.13821000000007
"Schlierbach",1100,3,"Lucerne","LU","Switzerland","Schlierbach, LU, Switzerland",47.2236100000001,8.11110000000002
"Sempach",1102,3,"Lucerne","LU","Switzerland","Sempach, LU, Switzerland",47.13471,8.19221000000005
"Sursee",1103,3,"Lucerne","LU","Switzerland","Sursee, LU, Switzerland",47.17528,8.10915
"Triengen",1104,3,"Lucerne","LU","Switzerland","Triengen, LU, Switzerland",47.2366000000001,8.07546000000002
"Wolhusen",1107,3,"Lucerne","LU","Switzerland","Wolhusen, LU, Switzerland",47.0590100000001,8.07326000000006
"Alberswil",1121,3,"Lucerne","LU","Switzerland","Alberswil, LU, Switzerland",47.1524400000001,8.00193000000007
"Altbüron",1122,3,"Lucerne","LU","Switzerland","Altbüron, LU, Switzerland",47.1784200000001,7.88197000000002
"Altishofen",1123,3,"Lucerne","LU","Switzerland","Altishofen, LU, Switzerland",47.20232,7.96700000000004
"Dagmersellen",1125,3,"Lucerne","LU","Switzerland","Dagmersellen, LU, Switzerland",47.2130500000001,7.98905000000008
"Egolzwil",1127,3,"Lucerne","LU","Switzerland","Egolzwil, LU, Switzerland",47.18485,8.00849000000005
"Ettiswil",1128,3,"Lucerne","LU","Switzerland","Ettiswil, LU, Switzerland",47.14793,8.01762000000002
"Fischbach",1129,3,"Lucerne","LU","Switzerland","Fischbach, LU, Switzerland",47.1533200000001,7.90876000000003
"Grossdietwil",1131,3,"Lucerne","LU","Switzerland","Grossdietwil, LU, Switzerland",47.1702300000001,7.88801000000007
"Hergiswil bei Willisau",1132,3,"Lucerne","LU","Switzerland","Hergiswil bei Willisau, LU, Switzerland",47.08423,7.95672000000008
"Luthern",1135,3,"Lucerne","LU","Switzerland","Luthern, LU, Switzerland",47.05922,7.91617000000002
"Menznau",1136,3,"Lucerne","LU","Switzerland","Menznau, LU, Switzerland",47.08306,8.03900000000004
"Nebikon",1137,3,"Lucerne","LU","Switzerland","Nebikon, LU, Switzerland",47.19016,7.97380000000004
"Pfaffnau",1139,3,"Lucerne","LU","Switzerland","Pfaffnau, LU, Switzerland",47.2288,7.89931000000007
"Reiden",1140,3,"Lucerne","LU","Switzerland","Reiden, LU, Switzerland",47.2437200000001,7.97144000000003
"Roggliswil",1142,3,"Lucerne","LU","Switzerland","Roggliswil, LU, Switzerland",47.2116500000001,7.88600000000002
"Schötz",1143,3,"Lucerne","LU","Switzerland","Schötz, LU, Switzerland",47.1706300000001,7.98932000000002
"Ufhusen",1145,3,"Lucerne","LU","Switzerland","Ufhusen, LU, Switzerland",47.11695,7.89627000000007
"Wauwil",1146,3,"Lucerne","LU","Switzerland","Wauwil, LU, Switzerland",47.1854300000001,8.02158000000003
"Wikon",1147,3,"Lucerne","LU","Switzerland","Wikon, LU, Switzerland",47.26275,7.97018000000003
"Zell (LU)",1150,3,"Lucerne","LU","Switzerland","Zell (LU), LU, Switzerland",47.1364800000001,7.92698000000007
"Willisau",1151,3,"Lucerne","LU","Switzerland","Willisau, LU, Switzerland",47.139646021,7.95826788100004
"Altdorf (UR)",1201,4,"Uri","UR","Switzerland","Altdorf (UR), UR, Switzerland",46.88187,8.64347000000004
"Andermatt",1202,4,"Uri","UR","Switzerland","Andermatt, UR, Switzerland",46.6329500000001,8.59475000000003
"Attinghausen",1203,4,"Uri","UR","Switzerland","Attinghausen, UR, Switzerland",46.8665500000001,8.62813000000006
"Bürglen (UR)",1205,4,"Uri","UR","Switzerland","Bürglen (UR), UR, Switzerland",46.8756300000001,8.66381000000007
"Erstfeld",1206,4,"Uri","UR","Switzerland","Erstfeld, UR, Switzerland",46.82367,8.65028000000007
"Flüelen",1207,4,"Uri","UR","Switzerland","Flüelen, UR, Switzerland",46.9005100000001,8.62479000000008
"Göschenen",1208,4,"Uri","UR","Switzerland","Göschenen, UR, Switzerland",46.6679600000001,8.58936000000006
"Gurtnellen",1209,4,"Uri","UR","Switzerland","Gurtnellen, UR, Switzerland",46.72788,8.62147000000004
"Hospental",1210,4,"Uri","UR","Switzerland","Hospental, UR, Switzerland",46.61794,8.56747000000007
"Isenthal",1211,4,"Uri","UR","Switzerland","Isenthal, UR, Switzerland",46.91072,8.56449000000003
"Realp",1212,4,"Uri","UR","Switzerland","Realp, UR, Switzerland",46.59777,8.50174000000004
"Schattdorf",1213,4,"Uri","UR","Switzerland","Schattdorf, UR, Switzerland",46.86515,8.65518000000003
"Seedorf (UR)",1214,4,"Uri","UR","Switzerland","Seedorf (UR), UR, Switzerland",46.88187,8.61643000000004
"Seelisberg",1215,4,"Uri","UR","Switzerland","Seelisberg, UR, Switzerland",46.9748500000001,8.58533000000006
"Silenen",1216,4,"Uri","UR","Switzerland","Silenen, UR, Switzerland",46.7857900000001,8.66973000000007
"Sisikon",1217,4,"Uri","UR","Switzerland","Sisikon, UR, Switzerland",46.9503,8.62189000000006
"Spiringen",1218,4,"Uri","UR","Switzerland","Spiringen, UR, Switzerland",46.8717800000001,8.73450000000003
"Unterschächen",1219,4,"Uri","UR","Switzerland","Unterschächen, UR, Switzerland",46.86357,8.76955000000004
"Wassen",1220,4,"Uri","UR","Switzerland","Wassen, UR, Switzerland",46.7059600000001,8.59894000000003
"Einsiedeln",1301,5,"Schwyz","SZ","Switzerland","Einsiedeln, SZ, Switzerland",47.117937398,8.77990881400007
"Gersau",1311,5,"Schwyz","SZ","Switzerland","Gersau, SZ, Switzerland",46.997883175,8.51971231300007
"Feusisberg",1321,5,"Schwyz","SZ","Switzerland","Feusisberg, SZ, Switzerland",47.18733,8.74778000000003
"Freienbach",1322,5,"Schwyz","SZ","Switzerland","Freienbach, SZ, Switzerland",47.2062900000001,8.75776000000008
"Wollerau",1323,5,"Schwyz","SZ","Switzerland","Wollerau, SZ, Switzerland",47.1958900000001,8.72010000000006
"Küssnacht (SZ)",1331,5,"Schwyz","SZ","Switzerland","Küssnacht (SZ), SZ, Switzerland",47.082441574,8.44992024500004
"Altendorf",1341,5,"Schwyz","SZ","Switzerland","Altendorf, SZ, Switzerland",47.1926,8.82921000000005
"Galgenen",1342,5,"Schwyz","SZ","Switzerland","Galgenen, SZ, Switzerland",47.18235,8.87522000000007
"Innerthal",1343,5,"Schwyz","SZ","Switzerland","Innerthal, SZ, Switzerland",47.1063,8.91604000000007
"Lachen",1344,5,"Schwyz","SZ","Switzerland","Lachen, SZ, Switzerland",47.1915700000001,8.85377000000005
"Reichenburg",1345,5,"Schwyz","SZ","Switzerland","Reichenburg, SZ, Switzerland",47.1704300000001,8.97452000000004
"Schübelbach",1346,5,"Schwyz","SZ","Switzerland","Schübelbach, SZ, Switzerland",47.17341,8.92899000000006
"Tuggen",1347,5,"Schwyz","SZ","Switzerland","Tuggen, SZ, Switzerland",47.20302,8.94161000000003
"Vorderthal",1348,5,"Schwyz","SZ","Switzerland","Vorderthal, SZ, Switzerland",47.1198800000001,8.90135000000004
"Wangen (SZ)",1349,5,"Schwyz","SZ","Switzerland","Wangen (SZ), SZ, Switzerland",47.1912800000001,8.89640000000003
"Alpthal",1361,5,"Schwyz","SZ","Switzerland","Alpthal, SZ, Switzerland",47.0681200000001,8.71461000000005
"Arth",1362,5,"Schwyz","SZ","Switzerland","Arth, SZ, Switzerland",47.0628400000001,8.52244000000007
"Illgau",1363,5,"Schwyz","SZ","Switzerland","Illgau, SZ, Switzerland",46.98729,8.72369000000003
"Ingenbohl",1364,5,"Schwyz","SZ","Switzerland","Ingenbohl, SZ, Switzerland",47.0006900000001,8.61395000000005
"Lauerz",1365,5,"Schwyz","SZ","Switzerland","Lauerz, SZ, Switzerland",47.0338400000001,8.58276000000006
"Morschach",1366,5,"Schwyz","SZ","Switzerland","Morschach, SZ, Switzerland",46.9815800000001,8.61836000000005
"Muotathal",1367,5,"Schwyz","SZ","Switzerland","Muotathal, SZ, Switzerland",46.9739700000001,8.75830000000008
"Oberiberg",1368,5,"Schwyz","SZ","Switzerland","Oberiberg, SZ, Switzerland",47.0381100000001,8.77979000000005
"Riemenstalden",1369,5,"Schwyz","SZ","Switzerland","Riemenstalden, SZ, Switzerland",46.9467300000001,8.66607000000005
"Rothenthurm",1370,5,"Schwyz","SZ","Switzerland","Rothenthurm, SZ, Switzerland",47.10423,8.67586000000006
"Sattel",1371,5,"Schwyz","SZ","Switzerland","Sattel, SZ, Switzerland",47.0806700000001,8.62962000000005
"Schwyz",1372,5,"Schwyz","SZ","Switzerland","Schwyz, SZ, Switzerland",47.0211,8.65365
"Steinen",1373,5,"Schwyz","SZ","Switzerland","Steinen, SZ, Switzerland",47.0503800000001,8.61277000000007
"Steinerberg",1374,5,"Schwyz","SZ","Switzerland","Steinerberg, SZ, Switzerland",47.05386,8.58491000000004
"Unteriberg",1375,5,"Schwyz","SZ","Switzerland","Unteriberg, SZ, Switzerland",47.0593,8.80197
"Alpnach",1401,6,"Obwald","OW","Switzerland","Alpnach, OW, Switzerland",46.93879,8.27037000000007
"Engelberg",1402,6,"Obwald","OW","Switzerland","Engelberg, OW, Switzerland",46.82097,8.40440000000007
"Giswil",1403,6,"Obwald","OW","Switzerland","Giswil, OW, Switzerland",46.83435,8.18493000000007
"Kerns",1404,6,"Obwald","OW","Switzerland","Kerns, OW, Switzerland",46.9008200000001,8.27498000000003
"Lungern",1405,6,"Obwald","OW","Switzerland","Lungern, OW, Switzerland",46.78576,8.15969000000007
"Sachseln",1406,6,"Obwald","OW","Switzerland","Sachseln, OW, Switzerland",46.86884,8.23883000000006
"Sarnen",1407,6,"Obwald","OW","Switzerland","Sarnen, OW, Switzerland",46.8933700000001,8.24483000000004
"Beckenried",1501,7,"Nidwald","NW","Switzerland","Beckenried, NW, Switzerland",46.96903,8.47216000000003
"Buochs",1502,7,"Nidwald","NW","Switzerland","Buochs, NW, Switzerland",46.9735600000001,8.42026000000004
"Dallenwil",1503,7,"Nidwald","NW","Switzerland","Dallenwil, NW, Switzerland",46.9348400000001,8.39214000000004
"Emmetten",1504,7,"Nidwald","NW","Switzerland","Emmetten, NW, Switzerland",46.9562500000001,8.51988000000006
"Ennetbürgen",1505,7,"Nidwald","NW","Switzerland","Ennetbürgen, NW, Switzerland",46.98516,8.4138
"Ennetmoos",1506,7,"Nidwald","NW","Switzerland","Ennetmoos, NW, Switzerland",46.9569100000001,8.33873000000006
"Hergiswil (NW)",1507,7,"Nidwald","NW","Switzerland","Hergiswil (NW), NW, Switzerland",46.98314,8.31121000000007
"Oberdorf (NW)",1508,7,"Nidwald","NW","Switzerland","Oberdorf (NW), NW, Switzerland",46.95752,8.38696000000004
"Stans",1509,7,"Nidwald","NW","Switzerland","Stans, NW, Switzerland",46.9572600000001,8.36591000000004
"Stansstad",1510,7,"Nidwald","NW","Switzerland","Stansstad, NW, Switzerland",46.9795300000001,8.33760000000007
"Wolfenschiessen",1511,7,"Nidwald","NW","Switzerland","Wolfenschiessen, NW, Switzerland",46.9105200000001,8.39571000000007
"Glarus Nord",1630,8,"Glaris","GL","Switzerland","Glarus Nord, GL, Switzerland",47.1254700000001,9.05312000000004
"Glarus Süd",1631,8,"Glaris","GL","Switzerland","Glarus Süd, GL, Switzerland",46.9948090681922,9.07502219407991
"Glarus",1632,8,"Glaris","GL","Switzerland","Glarus, GL, Switzerland",47.0409424068784,9.06887556327431
"Baar",1701,9,"Zoug","ZG","Switzerland","Baar, ZG, Switzerland",47.1947200000001,8.52633000000003
"Cham",1702,9,"Zoug","ZG","Switzerland","Cham, ZG, Switzerland",47.1809400000001,8.45898000000005
"Hünenberg",1703,9,"Zoug","ZG","Switzerland","Hünenberg, ZG, Switzerland",47.17632,8.42712000000006
"Menzingen",1704,9,"Zoug","ZG","Switzerland","Menzingen, ZG, Switzerland",47.1784900000001,8.59044000000006
"Neuheim",1705,9,"Zoug","ZG","Switzerland","Neuheim, ZG, Switzerland",47.2028900000001,8.57657000000006
"Oberägeri",1706,9,"Zoug","ZG","Switzerland","Oberägeri, ZG, Switzerland",47.1342000000001,8.61553000000004
"Risch",1707,9,"Zoug","ZG","Switzerland","Risch, ZG, Switzerland",47.13413,8.46603000000005
"Steinhausen",1708,9,"Zoug","ZG","Switzerland","Steinhausen, ZG, Switzerland",47.1968900000001,8.48466000000008
"Unterägeri",1709,9,"Zoug","ZG","Switzerland","Unterägeri, ZG, Switzerland",47.1374000000001,8.58383000000003
"Walchwil",1710,9,"Zoug","ZG","Switzerland","Walchwil, ZG, Switzerland",47.1009900000001,8.51196000000004
"Zug",1711,9,"Zoug","ZG","Switzerland","Zug, ZG, Switzerland",47.1744270516723,8.51437325122727
"Châtillon (FR)",2008,10,"Fribourg","FR","Switzerland","Châtillon (FR), FR, Switzerland",46.83302,6.82703000000004
"Cugy (FR)",2011,10,"Fribourg","FR","Switzerland","Cugy (FR), FR, Switzerland",46.8146800000001,6.89260000000007
"Fétigny",2016,10,"Fribourg","FR","Switzerland","Fétigny, FR, Switzerland",46.79814,6.91600000000005
"Gletterens",2022,10,"Fribourg","FR","Switzerland","Gletterens, FR, Switzerland",46.8953000000001,6.93709000000007
"Lully (FR)",2025,10,"Fribourg","FR","Switzerland","Lully (FR), FR, Switzerland",46.83365,6.84504000000004
"Ménières",2027,10,"Fribourg","FR","Switzerland","Ménières, FR, Switzerland",46.78328,6.88066000000003
"Montagny (FR)",2029,10,"Fribourg","FR","Switzerland","Montagny (FR), FR, Switzerland",46.81751,6.99605000000003
"Nuvilly",2035,10,"Fribourg","FR","Switzerland","Nuvilly, FR, Switzerland",46.7824600000001,6.83281000000005
"Prévondavaux",2038,10,"Fribourg","FR","Switzerland","Prévondavaux, FR, Switzerland",46.72792,6.79325000000006
"Saint-Aubin (FR)",2041,10,"Fribourg","FR","Switzerland","Saint-Aubin (FR), FR, Switzerland",46.8900400000001,6.98009000000008
"Sévaz",2043,10,"Fribourg","FR","Switzerland","Sévaz, FR, Switzerland",46.8386800000001,6.87532000000004
"Surpierre",2044,10,"Fribourg","FR","Switzerland","Surpierre, FR, Switzerland",46.7450000000001,6.86009000000007
"Vallon",2045,10,"Fribourg","FR","Switzerland","Vallon, FR, Switzerland",46.8826,6.95087000000007
"Les Montets",2050,10,"Fribourg","FR","Switzerland","Les Montets, FR, Switzerland",46.8162300000001,6.86805000000004
"Delley-Portalban",2051,10,"Fribourg","FR","Switzerland","Delley-Portalban, FR, Switzerland",46.9144700000001,6.96843000000007
"Belmont-Broye",2053,10,"Fribourg","FR","Switzerland","Belmont-Broye, FR, Switzerland",46.8653,7.01513000000006
"Estavayer",2054,10,"Fribourg","FR","Switzerland","Estavayer, FR, Switzerland",46.8488,6.84832000000006
"Cheyres-Châbles",2055,10,"Fribourg","FR","Switzerland","Cheyres-Châbles, FR, Switzerland",46.8158900000001,6.78805000000006
"Auboranges",2061,10,"Fribourg","FR","Switzerland","Auboranges, FR, Switzerland",46.58185,6.80546000000004
"Billens-Hennens",2063,10,"Fribourg","FR","Switzerland","Billens-Hennens, FR, Switzerland",46.6903600000001,6.89880000000005
"Chapelle (Glâne)",2066,10,"Fribourg","FR","Switzerland","Chapelle (Glâne), FR, Switzerland",46.58696,6.83462000000003
"Le Châtelard",2067,10,"Fribourg","FR","Switzerland","Le Châtelard, FR, Switzerland",46.6773600000001,6.97791000000007
"Châtonnaye",2068,10,"Fribourg","FR","Switzerland","Châtonnaye, FR, Switzerland",46.7541600000001,6.93879000000004
"Ecublens (FR)",2072,10,"Fribourg","FR","Switzerland","Ecublens (FR), FR, Switzerland",46.6095800000001,6.80851000000007
"Grangettes",2079,10,"Fribourg","FR","Switzerland","Grangettes, FR, Switzerland",46.6757700000001,6.96129000000008
"Massonnens",2086,10,"Fribourg","FR","Switzerland","Massonnens, FR, Switzerland",46.7025300000001,6.97486000000004
"Mézières (FR)",2087,10,"Fribourg","FR","Switzerland","Mézières (FR), FR, Switzerland",46.67668,6.92613000000006
"Montet (Glâne)",2089,10,"Fribourg","FR","Switzerland","Montet (Glâne), FR, Switzerland",46.64505,6.81265000000008
"Romont (FR)",2096,10,"Fribourg","FR","Switzerland","Romont (FR), FR, Switzerland",46.69079,6.91478000000006
"Rue",2097,10,"Fribourg","FR","Switzerland","Rue, FR, Switzerland",46.61906,6.82098000000008
"Siviriez",2099,10,"Fribourg","FR","Switzerland","Siviriez, FR, Switzerland",46.6568300000001,6.87454000000002
"Ursy",2102,10,"Fribourg","FR","Switzerland","Ursy, FR, Switzerland",46.6343900000001,6.83542000000006
"Vuisternens-devant-Romont",2113,10,"Fribourg","FR","Switzerland","Vuisternens-devant-Romont, FR, Switzerland",46.6563600000001,6.92890000000006
"Villorsonnens",2114,10,"Fribourg","FR","Switzerland","Villorsonnens, FR, Switzerland",46.71642,6.99520000000007
"Torny",2115,10,"Fribourg","FR","Switzerland","Torny, FR, Switzerland",46.7706900000001,6.96582000000006
"Villaz",2117,10,"Fribourg","FR","Switzerland","Villaz, FR, Switzerland",46.72126,6.95669000000004
"Haut-Intyamon",2121,10,"Fribourg","FR","Switzerland","Haut-Intyamon, FR, Switzerland",46.51883,7.05614000000003
"Pont-en-Ogoz",2122,10,"Fribourg","FR","Switzerland","Pont-en-Ogoz, FR, Switzerland",46.68566,7.08664000000005
"Botterens",2123,10,"Fribourg","FR","Switzerland","Botterens, FR, Switzerland",46.62026,7.11266000000006
"Broc",2124,10,"Fribourg","FR","Switzerland","Broc, FR, Switzerland",46.60321,7.09994000000006
"Bulle",2125,10,"Fribourg","FR","Switzerland","Bulle, FR, Switzerland",46.61859,7.05740000000003
"Châtel-sur-Montsalvens",2128,10,"Fribourg","FR","Switzerland","Châtel-sur-Montsalvens, FR, Switzerland",46.6132700000001,7.12890000000004
"Corbières",2129,10,"Fribourg","FR","Switzerland","Corbières, FR, Switzerland",46.6593,7.10185000000007
"Crésuz",2130,10,"Fribourg","FR","Switzerland","Crésuz, FR, Switzerland",46.61867,7.14131
"Echarlens",2131,10,"Fribourg","FR","Switzerland","Echarlens, FR, Switzerland",46.64885,7.07231000000007
"Grandvillard",2134,10,"Fribourg","FR","Switzerland","Grandvillard, FR, Switzerland",46.53948,7.08557000000008
"Gruyères",2135,10,"Fribourg","FR","Switzerland","Gruyères, FR, Switzerland",46.5824200000001,7.08019000000007
"Hauteville",2137,10,"Fribourg","FR","Switzerland","Hauteville, FR, Switzerland",46.66934,7.10976000000005
"Jaun",2138,10,"Fribourg","FR","Switzerland","Jaun, FR, Switzerland",46.6112600000001,7.27751000000006
"Marsens",2140,10,"Fribourg","FR","Switzerland","Marsens, FR, Switzerland",46.6565800000001,7.06461000000007
"Morlon",2143,10,"Fribourg","FR","Switzerland","Morlon, FR, Switzerland",46.62465,7.08408000000003
"Le Pâquier (FR)",2145,10,"Fribourg","FR","Switzerland","Le Pâquier (FR), FR, Switzerland",46.5964200000001,7.05754000000007
"Pont-la-Ville",2147,10,"Fribourg","FR","Switzerland","Pont-la-Ville, FR, Switzerland",46.6964400000001,7.11271000000005
"Riaz",2148,10,"Fribourg","FR","Switzerland","Riaz, FR, Switzerland",46.63849,7.06131000000005
"La Roche",2149,10,"Fribourg","FR","Switzerland","La Roche, FR, Switzerland",46.69692,7.13820000000004
"Sâles",2152,10,"Fribourg","FR","Switzerland","Sâles, FR, Switzerland",46.6355300000001,6.97436000000005
"Sorens",2153,10,"Fribourg","FR","Switzerland","Sorens, FR, Switzerland",46.6696000000001,7.05338000000006
"Vaulruz",2155,10,"Fribourg","FR","Switzerland","Vaulruz, FR, Switzerland",46.6210100000001,6.99042000000003
"Vuadens",2160,10,"Fribourg","FR","Switzerland","Vuadens, FR, Switzerland",46.6173700000001,7.01946000000004
"Bas-Intyamon",2162,10,"Fribourg","FR","Switzerland","Bas-Intyamon, FR, Switzerland",46.5671600000001,7.08423000000005
"Val-de-Charmey",2163,10,"Fribourg","FR","Switzerland","Val-de-Charmey, FR, Switzerland",46.6192100000001,7.16416000000004
"Autigny",2173,10,"Fribourg","FR","Switzerland","Autigny, FR, Switzerland",46.7365800000001,7.01836000000003
"Avry",2174,10,"Fribourg","FR","Switzerland","Avry, FR, Switzerland",46.78835,7.07207000000005
"Belfaux",2175,10,"Fribourg","FR","Switzerland","Belfaux, FR, Switzerland",46.82032,7.10585000000003
"Chénens",2177,10,"Fribourg","FR","Switzerland","Chénens, FR, Switzerland",46.7423400000001,7.00353000000007
"Corminboeuf",2183,10,"Fribourg","FR","Switzerland","Corminboeuf, FR, Switzerland",46.80717,7.10154000000006
"Cottens (FR)",2186,10,"Fribourg","FR","Switzerland","Cottens (FR), FR, Switzerland",46.75188,7.03090000000003
"Ferpicloz",2194,10,"Fribourg","FR","Switzerland","Ferpicloz, FR, Switzerland",46.74641,7.16490000000005
"Fribourg",2196,10,"Fribourg","FR","Switzerland","Fribourg, FR, Switzerland",46.80382,7.15357000000006
"Givisiez",2197,10,"Fribourg","FR","Switzerland","Givisiez, FR, Switzerland",46.8138700000001,7.13110000000006
"Granges-Paccot",2198,10,"Fribourg","FR","Switzerland","Granges-Paccot, FR, Switzerland",46.82505,7.14245000000005
"Grolley",2200,10,"Fribourg","FR","Switzerland","Grolley, FR, Switzerland",46.8333000000001,7.07073000000003
"Marly",2206,10,"Fribourg","FR","Switzerland","Marly, FR, Switzerland",46.7766300000001,7.16084000000006
"Matran",2208,10,"Fribourg","FR","Switzerland","Matran, FR, Switzerland",46.7857500000001,7.09488000000005
"Neyruz (FR)",2211,10,"Fribourg","FR","Switzerland","Neyruz (FR), FR, Switzerland",46.76786,7.06470000000007
"Pierrafortscha",2216,10,"Fribourg","FR","Switzerland","Pierrafortscha, FR, Switzerland",46.7865200000001,7.18559000000005
"Ponthaux",2217,10,"Fribourg","FR","Switzerland","Ponthaux, FR, Switzerland",46.81697,7.04269000000005
"Le Mouret",2220,10,"Fribourg","FR","Switzerland","Le Mouret, FR, Switzerland",46.75008,7.18017
"Treyvaux",2226,10,"Fribourg","FR","Switzerland","Treyvaux, FR, Switzerland",46.7278900000001,7.13652000000008
"Villars-sur-Glâne",2228,10,"Fribourg","FR","Switzerland","Villars-sur-Glâne, FR, Switzerland",46.79596,7.13012000000003
"Villarsel-sur-Marly",2230,10,"Fribourg","FR","Switzerland","Villarsel-sur-Marly, FR, Switzerland",46.7633700000001,7.16882000000004
"Hauterive (FR)",2233,10,"Fribourg","FR","Switzerland","Hauterive (FR), FR, Switzerland",46.7609100000001,7.09594000000004
"La Brillaz",2234,10,"Fribourg","FR","Switzerland","La Brillaz, FR, Switzerland",46.7592700000001,7.00492000000003
"La Sonnaz",2235,10,"Fribourg","FR","Switzerland","La Sonnaz, FR, Switzerland",46.8408900000001,7.13718000000006
"Gibloux",2236,10,"Fribourg","FR","Switzerland","Gibloux, FR, Switzerland",46.72182,7.06571000000002
"Prez",2237,10,"Fribourg","FR","Switzerland","Prez, FR, Switzerland",46.7857100000001,7.01745000000005
"Bois-d'Amont",2238,10,"Fribourg","FR","Switzerland","Bois-d'Amont, FR, Switzerland",46.7534000000001,7.14635000000004
"Courgevaux",2250,10,"Fribourg","FR","Switzerland","Courgevaux, FR, Switzerland",46.90792,7.11152000000004
"Courtepin",2254,10,"Fribourg","FR","Switzerland","Courtepin, FR, Switzerland",46.8647,7.12406000000004
"Cressier (FR)",2257,10,"Fribourg","FR","Switzerland","Cressier (FR), FR, Switzerland",46.8987100000001,7.14005000000003
"Fräschels",2258,10,"Fribourg","FR","Switzerland","Fräschels, FR, Switzerland",46.9981300000001,7.20834000000002
"Greng",2261,10,"Fribourg","FR","Switzerland","Greng, FR, Switzerland",46.91103,7.09436000000005
"Gurmels",2262,10,"Fribourg","FR","Switzerland","Gurmels, FR, Switzerland",46.89367,7.17319000000003
"Kerzers",2265,10,"Fribourg","FR","Switzerland","Kerzers, FR, Switzerland",46.9758600000001,7.19567000000006
"Kleinbösingen",2266,10,"Fribourg","FR","Switzerland","Kleinbösingen, FR, Switzerland",46.8943400000001,7.20456000000007
"Meyriez",2271,10,"Fribourg","FR","Switzerland","Meyriez, FR, Switzerland",46.9256,7.10927000000004
"Misery-Courtion",2272,10,"Fribourg","FR","Switzerland","Misery-Courtion, FR, Switzerland",46.8527700000001,7.06559000000004
"Muntelier",2274,10,"Fribourg","FR","Switzerland","Muntelier, FR, Switzerland",46.93521,7.12356000000005
"Murten",2275,10,"Fribourg","FR","Switzerland","Murten, FR, Switzerland",46.9294200000001,7.11891000000003
"Ried bei Kerzers",2276,10,"Fribourg","FR","Switzerland","Ried bei Kerzers, FR, Switzerland",46.9536600000001,7.18657000000007
"Ulmiz",2278,10,"Fribourg","FR","Switzerland","Ulmiz, FR, Switzerland",46.93224,7.20114000000007
"Mont-Vully",2284,10,"Fribourg","FR","Switzerland","Mont-Vully, FR, Switzerland",46.9574900000001,7.10818000000006
"Brünisried",2292,10,"Fribourg","FR","Switzerland","Brünisried, FR, Switzerland",46.7587500000001,7.27910000000003
"Düdingen",2293,10,"Fribourg","FR","Switzerland","Düdingen, FR, Switzerland",46.85058,7.19032000000004
"Giffers",2294,10,"Fribourg","FR","Switzerland","Giffers, FR, Switzerland",46.7622400000001,7.20865000000003
"Bösingen",2295,10,"Fribourg","FR","Switzerland","Bösingen, FR, Switzerland",46.89273,7.22809000000007
"Heitenried",2296,10,"Fribourg","FR","Switzerland","Heitenried, FR, Switzerland",46.8268,7.29957000000007
"Plaffeien",2299,10,"Fribourg","FR","Switzerland","Plaffeien, FR, Switzerland",46.7410100000001,7.28687000000002
"Plasselb",2300,10,"Fribourg","FR","Switzerland","Plasselb, FR, Switzerland",46.7352000000001,7.25060000000008
"Rechthalten",2301,10,"Fribourg","FR","Switzerland","Rechthalten, FR, Switzerland",46.7678500000001,7.24193000000002
"St. Silvester",2303,10,"Fribourg","FR","Switzerland","St. Silvester, FR, Switzerland",46.74346,7.21616000000006
"St. Ursen",2304,10,"Fribourg","FR","Switzerland","St. Ursen, FR, Switzerland",46.7895600000001,7.21838000000002
"Schmitten (FR)",2305,10,"Fribourg","FR","Switzerland","Schmitten (FR), FR, Switzerland",46.8557300000001,7.24854000000005
"Tafers",2306,10,"Fribourg","FR","Switzerland","Tafers, FR, Switzerland",46.8151700000001,7.21588000000003
"Tentlingen",2307,10,"Fribourg","FR","Switzerland","Tentlingen, FR, Switzerland",46.76858,7.19904000000002
"Ueberstorf",2308,10,"Fribourg","FR","Switzerland","Ueberstorf, FR, Switzerland",46.8647800000001,7.31057000000004
"Wünnewil-Flamatt",2309,10,"Fribourg","FR","Switzerland","Wünnewil-Flamatt, FR, Switzerland",46.8900800000001,7.31671000000006
"Attalens",2321,10,"Fribourg","FR","Switzerland","Attalens, FR, Switzerland",46.5092000000001,6.84931000000006
"Bossonnens",2323,10,"Fribourg","FR","Switzerland","Bossonnens, FR, Switzerland",46.52597,6.85223000000008
"Châtel-Saint-Denis",2325,10,"Fribourg","FR","Switzerland","Châtel-Saint-Denis, FR, Switzerland",46.52759,6.90162000000004
"Granges (Veveyse)",2328,10,"Fribourg","FR","Switzerland","Granges (Veveyse), FR, Switzerland",46.5245600000001,6.82937000000004
"Remaufens",2333,10,"Fribourg","FR","Switzerland","Remaufens, FR, Switzerland",46.5283600000001,6.87885000000006
"Saint-Martin (FR)",2335,10,"Fribourg","FR","Switzerland","Saint-Martin (FR), FR, Switzerland",46.5759,6.87300000000005
"Semsales",2336,10,"Fribourg","FR","Switzerland","Semsales, FR, Switzerland",46.5728,6.92703000000006
"Le Flon",2337,10,"Fribourg","FR","Switzerland","Le Flon, FR, Switzerland",46.60044,6.86671000000007
"La Verrerie",2338,10,"Fribourg","FR","Switzerland","La Verrerie, FR, Switzerland",46.5904200000001,6.92142000000007
"Egerkingen",2401,11,"Soleure","SO","Switzerland","Egerkingen, SO, Switzerland",47.3212600000001,7.79332000000005
"Härkingen",2402,11,"Soleure","SO","Switzerland","Härkingen, SO, Switzerland",47.3090500000001,7.81702000000007
"Kestenholz",2403,11,"Soleure","SO","Switzerland","Kestenholz, SO, Switzerland",47.2831100000001,7.75379000000004
"Neuendorf",2404,11,"Soleure","SO","Switzerland","Neuendorf, SO, Switzerland",47.3025900000001,7.79500000000007
"Niederbuchsiten",2405,11,"Soleure","SO","Switzerland","Niederbuchsiten, SO, Switzerland",47.29591,7.76730000000003
"Oberbuchsiten",2406,11,"Soleure","SO","Switzerland","Oberbuchsiten, SO, Switzerland",47.3133500000001,7.76633000000004
"Oensingen",2407,11,"Soleure","SO","Switzerland","Oensingen, SO, Switzerland",47.2903600000001,7.71725000000004
"Wolfwil",2408,11,"Soleure","SO","Switzerland","Wolfwil, SO, Switzerland",47.2698800000001,7.79946000000007
"Aedermannsdorf",2421,11,"Soleure","SO","Switzerland","Aedermannsdorf, SO, Switzerland",47.30458,7.61033000000003
"Balsthal",2422,11,"Soleure","SO","Switzerland","Balsthal, SO, Switzerland",47.3158700000001,7.69582000000003
"Herbetswil",2424,11,"Soleure","SO","Switzerland","Herbetswil, SO, Switzerland",47.2936,7.59463000000005
"Holderbank (SO)",2425,11,"Soleure","SO","Switzerland","Holderbank (SO), SO, Switzerland",47.3325,7.75323000000003
"Laupersdorf",2426,11,"Soleure","SO","Switzerland","Laupersdorf, SO, Switzerland",47.3120000000001,7.65452000000005
"Matzendorf",2427,11,"Soleure","SO","Switzerland","Matzendorf, SO, Switzerland",47.3067500000001,7.62921000000006
"Mümliswil-Ramiswil",2428,11,"Soleure","SO","Switzerland","Mümliswil-Ramiswil, SO, Switzerland",47.3414000000001,7.70240000000007
"Welschenrohr-Gänsbrunnen",2430,11,"Soleure","SO","Switzerland","Welschenrohr-Gänsbrunnen, SO, Switzerland",47.2807900000001,7.52780000000007
"Biezwil",2445,11,"Soleure","SO","Switzerland","Biezwil, SO, Switzerland",47.11355,7.41535000000005
"Lüterkofen-Ichertswil",2455,11,"Soleure","SO","Switzerland","Lüterkofen-Ichertswil, SO, Switzerland",47.1624600000001,7.50957000000005
"Messen",2457,11,"Soleure","SO","Switzerland","Messen, SO, Switzerland",47.09166,7.45224000000007
"Schnottwil",2461,11,"Soleure","SO","Switzerland","Schnottwil, SO, Switzerland",47.1119,7.39045000000004
"Unterramsern",2463,11,"Soleure","SO","Switzerland","Unterramsern, SO, Switzerland",47.1194600000001,7.48459000000003
"Lüsslingen-Nennigkofen",2464,11,"Soleure","SO","Switzerland","Lüsslingen-Nennigkofen, SO, Switzerland",47.19048,7.50223000000005
"Buchegg",2465,11,"Soleure","SO","Switzerland","Buchegg, SO, Switzerland",47.1413600000001,7.50821000000008
"Bättwil",2471,11,"Soleure","SO","Switzerland","Bättwil, SO, Switzerland",47.49019,7.50982000000005
"Büren (SO)",2472,11,"Soleure","SO","Switzerland","Büren (SO), SO, Switzerland",47.44917,7.67303000000004
"Dornach",2473,11,"Soleure","SO","Switzerland","Dornach, SO, Switzerland",47.4787700000001,7.61697000000004
"Gempen",2474,11,"Soleure","SO","Switzerland","Gempen, SO, Switzerland",47.4763800000001,7.65879000000007
"Hochwald",2475,11,"Soleure","SO","Switzerland","Hochwald, SO, Switzerland",47.4573,7.64047000000005
"Hofstetten-Flüh",2476,11,"Soleure","SO","Switzerland","Hofstetten-Flüh, SO, Switzerland",47.47567,7.51600000000008
"Metzerlen-Mariastein",2477,11,"Soleure","SO","Switzerland","Metzerlen-Mariastein, SO, Switzerland",47.46592,7.46508000000006
"Nuglar-St. Pantaleon",2478,11,"Soleure","SO","Switzerland","Nuglar-St. Pantaleon, SO, Switzerland",47.46077,7.69021000000004
"Rodersdorf",2479,11,"Soleure","SO","Switzerland","Rodersdorf, SO, Switzerland",47.4806400000001,7.45648000000006
"Seewen",2480,11,"Soleure","SO","Switzerland","Seewen, SO, Switzerland",47.4341200000001,7.65916000000004
"Witterswil",2481,11,"Soleure","SO","Switzerland","Witterswil, SO, Switzerland",47.48468,7.52242000000007
"Hauenstein-Ifenthal",2491,11,"Soleure","SO","Switzerland","Hauenstein-Ifenthal, SO, Switzerland",47.3764800000001,7.87318000000005
"Kienberg",2492,11,"Soleure","SO","Switzerland","Kienberg, SO, Switzerland",47.4391400000001,7.96675000000005
"Lostorf",2493,11,"Soleure","SO","Switzerland","Lostorf, SO, Switzerland",47.38654,7.94678000000005
"Niedergösgen",2495,11,"Soleure","SO","Switzerland","Niedergösgen, SO, Switzerland",47.3726100000001,7.99447000000004
"Obergösgen",2497,11,"Soleure","SO","Switzerland","Obergösgen, SO, Switzerland",47.3645300000001,7.95230000000004
"Stüsslingen",2499,11,"Soleure","SO","Switzerland","Stüsslingen, SO, Switzerland",47.3930100000001,7.97066000000007
"Trimbach",2500,11,"Soleure","SO","Switzerland","Trimbach, SO, Switzerland",47.36143,7.89936000000006
"Winznau",2501,11,"Soleure","SO","Switzerland","Winznau, SO, Switzerland",47.36467,7.93282000000005
"Wisen (SO)",2502,11,"Soleure","SO","Switzerland","Wisen (SO), SO, Switzerland",47.39268,7.88635000000005
"Erlinsbach (SO)",2503,11,"Soleure","SO","Switzerland","Erlinsbach (SO), SO, Switzerland",47.3982600000001,8.00837000000007
"Aeschi (SO)",2511,11,"Soleure","SO","Switzerland","Aeschi (SO), SO, Switzerland",47.1809500000001,7.66078000000005
"Biberist",2513,11,"Soleure","SO","Switzerland","Biberist, SO, Switzerland",47.18141,7.55708000000004
"Bolken",2514,11,"Soleure","SO","Switzerland","Bolken, SO, Switzerland",47.1924000000001,7.66354000000007
"Deitingen",2516,11,"Soleure","SO","Switzerland","Deitingen, SO, Switzerland",47.2136600000001,7.62078000000002
"Derendingen",2517,11,"Soleure","SO","Switzerland","Derendingen, SO, Switzerland",47.2003500000001,7.58954000000006
"Etziken",2518,11,"Soleure","SO","Switzerland","Etziken, SO, Switzerland",47.1873600000001,7.64621000000005
"Gerlafingen",2519,11,"Soleure","SO","Switzerland","Gerlafingen, SO, Switzerland",47.17076,7.57390000000004
"Halten",2520,11,"Soleure","SO","Switzerland","Halten, SO, Switzerland",47.1702500000001,7.60392000000007
"Horriwil",2523,11,"Soleure","SO","Switzerland","Horriwil, SO, Switzerland",47.1816400000001,7.62309000000005
"Hüniken",2524,11,"Soleure","SO","Switzerland","Hüniken, SO, Switzerland",47.1847700000001,7.63610000000006
"Kriegstetten",2525,11,"Soleure","SO","Switzerland","Kriegstetten, SO, Switzerland",47.1755700000001,7.59796000000006
"Lohn-Ammannsegg",2526,11,"Soleure","SO","Switzerland","Lohn-Ammannsegg, SO, Switzerland",47.1698200000001,7.52480000000003
"Luterbach",2527,11,"Soleure","SO","Switzerland","Luterbach, SO, Switzerland",47.21612,7.58805000000007
"Obergerlafingen",2528,11,"Soleure","SO","Switzerland","Obergerlafingen, SO, Switzerland",47.16027,7.58161000000007
"Oekingen",2529,11,"Soleure","SO","Switzerland","Oekingen, SO, Switzerland",47.1779000000001,7.60441000000003
"Recherswil",2530,11,"Soleure","SO","Switzerland","Recherswil, SO, Switzerland",47.16267,7.59382000000005
"Subingen",2532,11,"Soleure","SO","Switzerland","Subingen, SO, Switzerland",47.1945200000001,7.61344000000003
"Zuchwil",2534,11,"Soleure","SO","Switzerland","Zuchwil, SO, Switzerland",47.2035000000001,7.55730000000005
"Drei Höfe",2535,11,"Soleure","SO","Switzerland","Drei Höfe, SO, Switzerland",47.15698,7.63615000000004
"Balm bei Günsberg",2541,11,"Soleure","SO","Switzerland","Balm bei Günsberg, SO, Switzerland",47.25311,7.55858000000006
"Bellach",2542,11,"Soleure","SO","Switzerland","Bellach, SO, Switzerland",47.2127100000001,7.49916000000007
"Bettlach",2543,11,"Soleure","SO","Switzerland","Bettlach, SO, Switzerland",47.1981700000001,7.42964000000006
"Feldbrunnen-St. Niklaus",2544,11,"Soleure","SO","Switzerland","Feldbrunnen-St. Niklaus, SO, Switzerland",47.2210400000001,7.55625000000003
"Flumenthal",2545,11,"Soleure","SO","Switzerland","Flumenthal, SO, Switzerland",47.23988,7.59779000000003
"Grenchen",2546,11,"Soleure","SO","Switzerland","Grenchen, SO, Switzerland",47.1928800000001,7.39940000000007
"Günsberg",2547,11,"Soleure","SO","Switzerland","Günsberg, SO, Switzerland",47.25757,7.57660000000004
"Hubersdorf",2548,11,"Soleure","SO","Switzerland","Hubersdorf, SO, Switzerland",47.2463300000001,7.59042000000005
"Kammersrohr",2549,11,"Soleure","SO","Switzerland","Kammersrohr, SO, Switzerland",47.2536900000001,7.59410000000003
"Langendorf",2550,11,"Soleure","SO","Switzerland","Langendorf, SO, Switzerland",47.2226400000001,7.51462000000004
"Lommiswil",2551,11,"Soleure","SO","Switzerland","Lommiswil, SO, Switzerland",47.2223900000001,7.47154000000006
"Oberdorf (SO)",2553,11,"Soleure","SO","Switzerland","Oberdorf (SO), SO, Switzerland",47.2306400000001,7.50160000000005
"Riedholz",2554,11,"Soleure","SO","Switzerland","Riedholz, SO, Switzerland",47.22995,7.56860000000006
"Rüttenen",2555,11,"Soleure","SO","Switzerland","Rüttenen, SO, Switzerland",47.23229,7.53311000000002
"Selzach",2556,11,"Soleure","SO","Switzerland","Selzach, SO, Switzerland",47.20304,7.45748000000003
"Boningen",2571,11,"Soleure","SO","Switzerland","Boningen, SO, Switzerland",47.30798,7.85670000000005
"Däniken",2572,11,"Soleure","SO","Switzerland","Däniken, SO, Switzerland",47.35574,7.98046000000005
"Dulliken",2573,11,"Soleure","SO","Switzerland","Dulliken, SO, Switzerland",47.34628,7.94465000000002
"Eppenberg-Wöschnau",2574,11,"Soleure","SO","Switzerland","Eppenberg-Wöschnau, SO, Switzerland",47.3837300000001,8.02521000000007
"Fulenbach",2575,11,"Soleure","SO","Switzerland","Fulenbach, SO, Switzerland",47.2751500000001,7.83353000000005
"Gretzenbach",2576,11,"Soleure","SO","Switzerland","Gretzenbach, SO, Switzerland",47.3615800000001,7.99671000000006
"Gunzgen",2578,11,"Soleure","SO","Switzerland","Gunzgen, SO, Switzerland",47.3174500000001,7.82958000000002
"Hägendorf",2579,11,"Soleure","SO","Switzerland","Hägendorf, SO, Switzerland",47.3371300000001,7.84461000000005
"Kappel (SO)",2580,11,"Soleure","SO","Switzerland","Kappel (SO), SO, Switzerland",47.3242300000001,7.84779000000003
"Olten",2581,11,"Soleure","SO","Switzerland","Olten, SO, Switzerland",47.3386200750001,7.89966103500007
"Rickenbach (SO)",2582,11,"Soleure","SO","Switzerland","Rickenbach (SO), SO, Switzerland",47.3397200000001,7.85703000000007
"Schönenwerd",2583,11,"Soleure","SO","Switzerland","Schönenwerd, SO, Switzerland",47.37228,8.00299000000007
"Starrkirch-Wil",2584,11,"Soleure","SO","Switzerland","Starrkirch-Wil, SO, Switzerland",47.3523900000001,7.92722000000003
"Walterswil (SO)",2585,11,"Soleure","SO","Switzerland","Walterswil (SO), SO, Switzerland",47.32404,7.95991000000004
"Wangen bei Olten",2586,11,"Soleure","SO","Switzerland","Wangen bei Olten, SO, Switzerland",47.3429300000001,7.86821000000003
"Solothurn",2601,11,"Soleure","SO","Switzerland","Solothurn, SO, Switzerland",47.20341,7.54334
"Bärschwil",2611,11,"Soleure","SO","Switzerland","Bärschwil, SO, Switzerland",47.3820200000001,7.47231000000005
"Beinwil (SO)",2612,11,"Soleure","SO","Switzerland","Beinwil (SO), SO, Switzerland",47.36256,7.58664000000005
"Breitenbach",2613,11,"Soleure","SO","Switzerland","Breitenbach, SO, Switzerland",47.40907,7.54399000000006
"Büsserach",2614,11,"Soleure","SO","Switzerland","Büsserach, SO, Switzerland",47.3910300000001,7.53979000000004
"Erschwil",2615,11,"Soleure","SO","Switzerland","Erschwil, SO, Switzerland",47.3722000000001,7.54196000000007
"Fehren",2616,11,"Soleure","SO","Switzerland","Fehren, SO, Switzerland",47.3952200000001,7.58043000000004
"Grindel",2617,11,"Soleure","SO","Switzerland","Grindel, SO, Switzerland",47.3815700000001,7.50185000000005
"Himmelried",2618,11,"Soleure","SO","Switzerland","Himmelried, SO, Switzerland",47.4220800000001,7.59787000000006
"Kleinlützel",2619,11,"Soleure","SO","Switzerland","Kleinlützel, SO, Switzerland",47.4258300000001,7.41602000000006
"Meltingen",2620,11,"Soleure","SO","Switzerland","Meltingen, SO, Switzerland",47.3896800000001,7.59038000000004
"Nunningen",2621,11,"Soleure","SO","Switzerland","Nunningen, SO, Switzerland",47.39358,7.62109000000004
"Zullwil",2622,11,"Soleure","SO","Switzerland","Zullwil, SO, Switzerland",47.3906700000001,7.60013000000004
"Basel",2701,12,"Bâle-Ville","BS","Switzerland","Basel, BS, Switzerland",47.5488,7.58781000000005
"Bettingen",2702,12,"Bâle-Ville","BS","Switzerland","Bettingen, BS, Switzerland",47.5708700000001,7.66499000000005
"Riehen",2703,12,"Bâle-Ville","BS","Switzerland","Riehen, BS, Switzerland",47.58441,7.64948000000004
"Aesch (BL)",2761,13,"Bâle-Campagne","BL","Switzerland","Aesch (BL), BL, Switzerland",47.4669700000001,7.59807000000006
"Allschwil",2762,13,"Bâle-Campagne","BL","Switzerland","Allschwil, BL, Switzerland",47.55159,7.53811000000007
"Arlesheim",2763,13,"Bâle-Campagne","BL","Switzerland","Arlesheim, BL, Switzerland",47.49461,7.61867
"Biel-Benken",2764,13,"Bâle-Campagne","BL","Switzerland","Biel-Benken, BL, Switzerland",47.50521,7.52535000000006
"Binningen",2765,13,"Bâle-Campagne","BL","Switzerland","Binningen, BL, Switzerland",47.53806,7.57122000000004
"Birsfelden",2766,13,"Bâle-Campagne","BL","Switzerland","Birsfelden, BL, Switzerland",47.55422,7.61970000000002
"Bottmingen",2767,13,"Bâle-Campagne","BL","Switzerland","Bottmingen, BL, Switzerland",47.5233700000001,7.57188000000002
"Ettingen",2768,13,"Bâle-Campagne","BL","Switzerland","Ettingen, BL, Switzerland",47.4810200000001,7.54443000000003
"Münchenstein",2769,13,"Bâle-Campagne","BL","Switzerland","Münchenstein, BL, Switzerland",47.51241,7.62087000000002
"Muttenz",2770,13,"Bâle-Campagne","BL","Switzerland","Muttenz, BL, Switzerland",47.5232,7.64535000000006
"Oberwil (BL)",2771,13,"Bâle-Campagne","BL","Switzerland","Oberwil (BL), BL, Switzerland",47.51376,7.55503000000004
"Pfeffingen",2772,13,"Bâle-Campagne","BL","Switzerland","Pfeffingen, BL, Switzerland",47.45896,7.58970000000005
"Reinach (BL)",2773,13,"Bâle-Campagne","BL","Switzerland","Reinach (BL), BL, Switzerland",47.4933,7.59093000000007
"Schönenbuch",2774,13,"Bâle-Campagne","BL","Switzerland","Schönenbuch, BL, Switzerland",47.53763,7.50268000000005
"Therwil",2775,13,"Bâle-Campagne","BL","Switzerland","Therwil, BL, Switzerland",47.49913,7.55644000000007
"Blauen",2781,13,"Bâle-Campagne","BL","Switzerland","Blauen, BL, Switzerland",47.4490700000001,7.51819000000006
"Brislach",2782,13,"Bâle-Campagne","BL","Switzerland","Brislach, BL, Switzerland",47.4187600000001,7.54282000000006
"Burg im Leimental",2783,13,"Bâle-Campagne","BL","Switzerland","Burg im Leimental, BL, Switzerland",47.4574000000001,7.44246000000004
"Dittingen",2784,13,"Bâle-Campagne","BL","Switzerland","Dittingen, BL, Switzerland",47.4390300000001,7.49767000000003
"Duggingen",2785,13,"Bâle-Campagne","BL","Switzerland","Duggingen, BL, Switzerland",47.4524400000001,7.60584000000006
"Grellingen",2786,13,"Bâle-Campagne","BL","Switzerland","Grellingen, BL, Switzerland",47.4420000000001,7.58909000000006
"Laufen",2787,13,"Bâle-Campagne","BL","Switzerland","Laufen, BL, Switzerland",47.427272757,7.49292176500006
"Liesberg",2788,13,"Bâle-Campagne","BL","Switzerland","Liesberg, BL, Switzerland",47.3960000000001,7.42153000000008
"Nenzlingen",2789,13,"Bâle-Campagne","BL","Switzerland","Nenzlingen, BL, Switzerland",47.4473400000001,7.56149000000005
"Roggenburg",2790,13,"Bâle-Campagne","BL","Switzerland","Roggenburg, BL, Switzerland",47.4341700000001,7.34124000000003
"Röschenz",2791,13,"Bâle-Campagne","BL","Switzerland","Röschenz, BL, Switzerland",47.42467,7.47609000000006
"Wahlen",2792,13,"Bâle-Campagne","BL","Switzerland","Wahlen, BL, Switzerland",47.4014300000001,7.51551000000006
"Zwingen",2793,13,"Bâle-Campagne","BL","Switzerland","Zwingen, BL, Switzerland",47.4383100000001,7.53098000000006
"Arisdorf",2821,13,"Bâle-Campagne","BL","Switzerland","Arisdorf, BL, Switzerland",47.5097700000001,7.76545000000004
"Augst",2822,13,"Bâle-Campagne","BL","Switzerland","Augst, BL, Switzerland",47.53549,7.71979000000005
"Bubendorf",2823,13,"Bâle-Campagne","BL","Switzerland","Bubendorf, BL, Switzerland",47.45041,7.73576000000003
"Frenkendorf",2824,13,"Bâle-Campagne","BL","Switzerland","Frenkendorf, BL, Switzerland",47.5028800000001,7.71512000000007
"Füllinsdorf",2825,13,"Bâle-Campagne","BL","Switzerland","Füllinsdorf, BL, Switzerland",47.50561,7.72982000000007
"Giebenach",2826,13,"Bâle-Campagne","BL","Switzerland","Giebenach, BL, Switzerland",47.5234600000001,7.74649000000005
"Hersberg",2827,13,"Bâle-Campagne","BL","Switzerland","Hersberg, BL, Switzerland",47.49174,7.78351000000004
"Lausen",2828,13,"Bâle-Campagne","BL","Switzerland","Lausen, BL, Switzerland",47.4702,7.76543000000004
"Liestal",2829,13,"Bâle-Campagne","BL","Switzerland","Liestal, BL, Switzerland",47.481605787,7.72802066500003
"Lupsingen",2830,13,"Bâle-Campagne","BL","Switzerland","Lupsingen, BL, Switzerland",47.4463700000001,7.69481000000007
"Pratteln",2831,13,"Bâle-Campagne","BL","Switzerland","Pratteln, BL, Switzerland",47.5207,7.69179000000003
"Ramlinsburg",2832,13,"Bâle-Campagne","BL","Switzerland","Ramlinsburg, BL, Switzerland",47.4498600000001,7.76375000000007
